{
  "airports": [
    {
      "code": "NRT",
      "name": "东京成田国际机场",
      "city": "东京",
      "latitude": 35.7647,
      "longitude": 140.3863
    },
    {
      "code": "HND",
      "name": "东京羽田机场",
      "city": "东京",
      "latitude": 35.5523,
      "longitude": 139.7807
    },
    {
      "code": "KIX",
      "name": "大阪关西国际机场",
      "city": "大阪",
      "latitude": 34.4347,
      "longitude": 135.2444
    },
    {
      "code": "ICN",
      "name": "首尔仁川国际机场",
      "city": "首尔",
      "latitude": 37.4691,
      "longitude": 126.4508
    },
    {
      "code": "GMP",
      "name": "首尔金浦国际机场",
      "city": "首尔",
      "latitude": 37.5583,
      "longitude": 126.7905
    },
    {
      "code": "FNJ",
      "name": "平壤顺安国际机场",
      "city": "平壤",
      "latitude": 39.19956,
      "longitude": 125.67618
    },
    {
      "code": "BKK",
      "name": "曼谷素万那普国际机场",
      "city": "曼谷",
      "latitude": 13.6811,
      "longitude": 100.7472
    },
    {
      "code": "SIN",
      "name": "新加坡樟宜机场",
      "city": "新加坡",
      "latitude": 1.3502,
      "longitude": 103.9944
    },
    {
      "code": "KUL",
      "name": "吉隆坡国际机场",
      "city": "吉隆坡",
      "latitude": 2.7458,
      "longitude": 101.7097
    },
    {
      "code": "CGK",
      "name": "雅加达苏加诺-哈达国际机场",
      "city": "雅加达",
      "latitude": -6.1256,
      "longitude": 106.6559
    },
    {
      "code": "MNL",
      "name": "马尼拉尼诺·阿基诺国际机场",
      "city": "马尼拉",
      "latitude": 14.5086,
      "longitude": 121.0199
    },
    {
      "code": "HKG",
      "name": "香港国际机场",
      "city": "香港",
      "latitude": 22.3089,
      "longitude": 113.9147
    },
    {
      "code": "BOM",
      "name": "孟买贾特拉帕蒂·希瓦吉国际机场",
      "city": "孟买",
      "latitude": 19.0887,
      "longitude": 72.8679
    },
    {
      "code": "DEL",
      "name": "新德里英迪拉·甘地国际机场",
      "city": "新德里",
      "latitude": 28.5556,
      "longitude": 77.0989
    },
    {
      "code": "BLR",
      "name": "班加罗尔肯普高达国际机场",
      "city": "班加罗尔",
      "latitude": 13.1989,
      "longitude": 77.7061
    },
    {
      "code": "DXB",
      "name": "迪拜国际机场",
      "city": "迪拜",
      "latitude": 25.2528,
      "longitude": 55.3644
    },
    {
      "code": "DOH",
      "name": "多哈哈马德国际机场",
      "city": "多哈",
      "latitude": 25.2731,
      "longitude": 51.6081
    },
    {
      "code": "AUH",
      "name": "阿布扎比国际机场",
      "city": "阿布扎比",
      "latitude": 24.4333,
      "longitude": 54.6511
    },
    {
      "code": "LHR",
      "name": "伦敦希思罗机场",
      "city": "伦敦",
      "latitude": 51.47,
      "longitude": -0.4544
    },
    {
      "code": "LGW",
      "name": "伦敦盖特威克机场",
      "city": "伦敦",
      "latitude": 51.1481,
      "longitude": -0.1903
    },
    {
      "code": "CDG",
      "name": "巴黎戴高乐机场",
      "city": "巴黎",
      "latitude": 49.0128,
      "longitude": 2.55
    },
    {
      "code": "ORY",
      "name": "巴黎奥利机场",
      "city": "巴黎",
      "latitude": 48.7233,
      "longitude": 2.3794
    },
    {
      "code": "FRA",
      "name": "法兰克福机场",
      "city": "法兰克福",
      "latitude": 50.0333,
      "longitude": 8.5706
    },
    {
      "code": "MUC",
      "name": "慕尼黑机场",
      "city": "慕尼黑",
      "latitude": 48.3539,
      "longitude": 11.7861
    },
    {
      "code": "AMS",
      "name": "阿姆斯特丹史基浦机场",
      "city": "阿姆斯特丹",
      "latitude": 52.3086,
      "longitude": 4.7639
    },
    {
      "code": "FCO",
      "name": "罗马菲乌米奇诺机场",
      "city": "罗马",
      "latitude": 41.8003,
      "longitude": 12.2389
    },
    {
      "code": "MAD",
      "name": "马德里巴拉哈斯机场",
      "city": "马德里",
      "latitude": 40.4722,
      "longitude": -3.5608
    },
    {
      "code": "BCN",
      "name": "巴塞罗那机场",
      "city": "巴塞罗那",
      "latitude": 41.2971,
      "longitude": 2.0785
    },
    {
      "code": "ZUR",
      "name": "苏黎世机场",
      "city": "苏黎世",
      "latitude": 47.4647,
      "longitude": 8.5492
    },
    {
      "code": "VIE",
      "name": "维也纳国际机场",
      "city": "维也纳",
      "latitude": 48.1103,
      "longitude": 16.5697
    },
    {
      "code": "BRU",
      "name": "布鲁塞尔机场",
      "city": "布鲁塞尔",
      "latitude": 50.9014,
      "longitude": 4.4844
    },
    {
      "code": "CPH",
      "name": "哥本哈根机场",
      "city": "哥本哈根",
      "latitude": 55.6179,
      "longitude": 12.6561
    },
    {
      "code": "ARN",
      "name": "斯德哥尔摩阿兰达机场",
      "city": "斯德哥尔摩",
      "latitude": 59.6519,
      "longitude": 17.9186
    },
    {
      "code": "OSL",
      "name": "奥斯陆加勒穆恩机场",
      "city": "奥斯陆",
      "latitude": 60.2028,
      "longitude": 11.0839
    },
    {
      "code": "HEL",
      "name": "赫尔辛基万塔机场",
      "city": "赫尔辛基",
      "latitude": 60.3172,
      "longitude": 24.9633
    },
    {
      "code": "SVO",
      "name": "莫斯科谢列梅捷沃机场",
      "city": "莫斯科",
      "latitude": 55.9728,
      "longitude": 37.4147
    },
    {
      "code": "DME",
      "name": "莫斯科多莫杰多沃机场",
      "city": "莫斯科",
      "latitude": 55.4083,
      "longitude": 37.9061
    },
    {
      "code": "LED",
      "name": "圣彼得堡普尔科沃机场",
      "city": "圣彼得堡",
      "latitude": 59.8003,
      "longitude": 30.2625
    },
    {
      "code": "ALA",
      "name": "阿拉木图国际机场",
      "city": "阿拉木图",
      "latitude": 43.3507,
      "longitude": 77.0405
    },
    {
      "code": "WAW",
      "name": "华沙肖邦机场",
      "city": "华沙",
      "latitude": 52.1656,
      "longitude": 20.9672
    },
    {
      "code": "PRG",
      "name": "布拉格瓦茨拉夫·哈维尔机场",
      "city": "布拉格",
      "latitude": 50.1008,
      "longitude": 14.26
    },
    {
      "code": "BUD",
      "name": "布达佩斯李斯特·费伦茨机场",
      "city": "布达佩斯",
      "latitude": 47.43,
      "longitude": 19.2611
    },
    {
      "code": "ATH",
      "name": "雅典埃莱夫塞里奥斯·韦尼泽洛斯机场",
      "city": "雅典",
      "latitude": 37.9364,
      "longitude": 23.9445
    },
    {
      "code": "IST",
      "name": "伊斯坦布尔机场",
      "city": "伊斯坦布尔",
      "latitude": 41.2615,
      "longitude": 28.7419
    },
    {
      "code": "SAW",
      "name": "伊斯坦布尔萨比哈·格克琴机场",
      "city": "伊斯坦布尔",
      "latitude": 40.8986,
      "longitude": 29.3092
    },
    {
      "code": "LIS",
      "name": "里斯本机场",
      "city": "里斯本",
      "latitude": 38.7814,
      "longitude": -9.1355
    },
    {
      "code": "MXP",
      "name": "米兰马尔彭萨机场",
      "city": "米兰",
      "latitude": 45.63,
      "longitude": 8.7281
    },
    {
      "code": "LIN",
      "name": "米兰利纳特机场",
      "city": "米兰",
      "latitude": 45.445,
      "longitude": 9.2767
    },
    {
      "code": "VCE",
      "name": "威尼斯马可·波罗机场",
      "city": "威尼斯",
      "latitude": 45.5053,
      "longitude": 12.3519
    },
    {
      "code": "NAP",
      "name": "那不勒斯机场",
      "city": "那不勒斯",
      "latitude": 40.886,
      "longitude": 14.2908
    },
    {
      "code": "DUB",
      "name": "都柏林机场",
      "city": "都柏林",
      "latitude": 53.4213,
      "longitude": -6.27
    },
    {
      "code": "EDI",
      "name": "爱丁堡机场",
      "city": "爱丁堡",
      "latitude": 55.95,
      "longitude": -3.3725
    },
    {
      "code": "MAN",
      "name": "曼彻斯特机场",
      "city": "曼彻斯特",
      "latitude": 53.3537,
      "longitude": -2.275
    },
    {
      "code": "KEF",
      "name": "雷克雅未克凯夫拉维克国际机场",
      "city": "雷克雅未克",
      "latitude": 63.985,
      "longitude": -22.6056
    },
    {
      "code": "RKV",
      "name": "雷克雅未克机场",
      "city": "雷克雅未克",
      "latitude": 64.13,
      "longitude": -21.9406
    },
    {
      "code": "LYS",
      "name": "里昂圣埃克絮佩里机场",
      "city": "里昂",
      "latitude": 45.7256,
      "longitude": 5.0811
    },
    {
      "code": "NTE",
      "name": "南特大西洋机场",
      "city": "南特",
      "latitude": 47.1532,
      "longitude": -1.6072
    },
    {
      "code": "TLS",
      "name": "图卢兹布拉尼亚克机场",
      "city": "图卢兹",
      "latitude": 43.6294,
      "longitude": 1.3678
    },
    {
      "code": "STR",
      "name": "斯图加特机场",
      "city": "斯图加特",
      "latitude": 48.6898,
      "longitude": 9.222
    },
    {
      "code": "DUS",
      "name": "杜塞尔多夫机场",
      "city": "杜塞尔多夫",
      "latitude": 51.2895,
      "longitude": 6.7667
    },
    {
      "code": "HAM",
      "name": "汉堡机场",
      "city": "汉堡",
      "latitude": 53.6303,
      "longitude": 9.9882
    },
    {
      "code": "CGN",
      "name": "科隆波恩机场",
      "city": "科隆",
      "latitude": 50.8659,
      "longitude": 7.1428
    },
    {
      "code": "BER",
      "name": "柏林勃兰登堡机场",
      "city": "柏林",
      "latitude": 52.362,
      "longitude": 13.5006
    },
    {
      "code": "GOT",
      "name": "哥德堡兰德维特机场",
      "city": "哥德堡",
      "latitude": 57.6628,
      "longitude": 12.2797
    },
    {
      "code": "BGO",
      "name": "卑尔根机场",
      "city": "卑尔根",
      "latitude": 60.2934,
      "longitude": 5.2181
    },
    {
      "code": "TRD",
      "name": "特隆赫姆机场",
      "city": "特隆赫姆",
      "latitude": 63.4578,
      "longitude": 10.924
    },
    {
      "code": "BLL",
      "name": "比隆机场",
      "city": "比隆",
      "latitude": 55.7403,
      "longitude": 9.1517
    },
    {
      "code": "AAL",
      "name": "奥尔堡机场",
      "city": "奥尔堡",
      "latitude": 57.0928,
      "longitude": 9.8492
    },
    {
      "code": "TMP",
      "name": "坦佩雷机场",
      "city": "坦佩雷",
      "latitude": 61.4144,
      "longitude": 23.6044
    },
    {
      "code": "OUL",
      "name": "奥卢机场",
      "city": "奥卢",
      "latitude": 64.9306,
      "longitude": 25.3545
    },
    {
      "code": "RIX",
      "name": "里加国际机场",
      "city": "里加",
      "latitude": 56.9239,
      "longitude": 23.9711
    },
    {
      "code": "VNO",
      "name": "维尔纽斯机场",
      "city": "维尔纽斯",
      "latitude": 54.6341,
      "longitude": 25.2858
    },
    {
      "code": "TLL",
      "name": "塔林机场",
      "city": "塔林",
      "latitude": 59.4133,
      "longitude": 24.8328
    },
    {
      "code": "KTM",
      "name": "加德满都特里布万国际机场",
      "city": "加德满都",
      "latitude": 27.6965,
      "longitude": 85.3592
    },
    {
      "code": "CMB",
      "name": "科伦坡班达拉奈克国际机场",
      "city": "科伦坡",
      "latitude": 7.1808,
      "longitude": 79.8842
    },
    {
      "code": "DAC",
      "name": "达卡哈兹拉特·沙阿贾拉勒国际机场",
      "city": "达卡",
      "latitude": 23.8433,
      "longitude": 90.3978
    },
    {
      "code": "CGP",
      "name": "吉大港沙阿阿马纳特国际机场",
      "city": "吉大港",
      "latitude": 22.2497,
      "longitude": 91.8133
    },
    {
      "code": "RGN",
      "name": "仰光国际机场",
      "city": "仰光",
      "latitude": 16.9072,
      "longitude": 96.1333
    },
    {
      "code": "MDL",
      "name": "曼德勒国际机场",
      "city": "曼德勒",
      "latitude": 21.7022,
      "longitude": 95.9778
    },
    {
      "code": "PNH",
      "name": "金边国际机场",
      "city": "金边",
      "latitude": 11.5465,
      "longitude": 104.8444
    },
    {
      "code": "REP",
      "name": "暹粒国际机场",
      "city": "暹粒",
      "latitude": 13.4107,
      "longitude": 103.8128
    },
    {
      "code": "VTE",
      "name": "万象瓦岱国际机场",
      "city": "万象",
      "latitude": 17.9883,
      "longitude": 102.5633
    },
    {
      "code": "LPQ",
      "name": "琅勃拉邦国际机场",
      "city": "琅勃拉邦",
      "latitude": 19.8978,
      "longitude": 102.1611
    },
    {
      "code": "ULN",
      "name": "乌兰巴托成吉思汗国际机场",
      "city": "乌兰巴托",
      "latitude": 47.8439,
      "longitude": 106.7667
    },
    {
      "code": "FRU",
      "name": "比什凯克玛纳斯国际机场",
      "city": "比什凯克",
      "latitude": 43.0612,
      "longitude": 74.4776
    },
    {
      "code": "OSS",
      "name": "奥什机场",
      "city": "奥什",
      "latitude": 40.6089,
      "longitude": 72.7933
    },
    {
      "code": "DYU",
      "name": "杜尚别国际机场",
      "city": "杜尚别",
      "latitude": 38.5433,
      "longitude": 68.825
    },
    {
      "code": "ASB",
      "name": "阿什哈巴德奥古兹汗机场",
      "city": "阿什哈巴德",
      "latitude": 37.9868,
      "longitude": 58.361
    },
    {
      "code": "TAS",
      "name": "塔什干尤努萨巴德机场",
      "city": "塔什干",
      "latitude": 41.2578,
      "longitude": 69.2819
    },
    {
      "code": "SKD",
      "name": "撒马尔罕机场",
      "city": "撒马尔罕",
      "latitude": 39.7005,
      "longitude": 66.9839
    },
    {
      "code": "NQZ",
      "name": "努尔苏丹纳扎尔巴耶夫国际机场",
      "city": "努尔苏丹",
      "latitude": 51.0222,
      "longitude": 71.4669
    },
    {
      "code": "AKX",
      "name": "阿克套机场",
      "city": "阿克套",
      "latitude": 43.8606,
      "longitude": 51.0919
    },
    {
      "code": "GYD",
      "name": "巴库盖达尔·阿利耶夫国际机场",
      "city": "巴库",
      "latitude": 40.4675,
      "longitude": 50.0467
    },
    {
      "code": "EVN",
      "name": "埃里温兹瓦尔特诺茨国际机场",
      "city": "埃里温",
      "latitude": 40.1473,
      "longitude": 44.3959
    },
    {
      "code": "TBS",
      "name": "第比利斯肖塔·鲁斯塔韦利国际机场",
      "city": "第比利斯",
      "latitude": 41.6692,
      "longitude": 44.9547
    },
    {
      "code": "BUS",
      "name": "巴统亚历山大·卡尔特韦利机场",
      "city": "巴统",
      "latitude": 41.6108,
      "longitude": 41.5997
    },
    {
      "code": "KUT",
      "name": "库塔伊西大卫建造者国际机场",
      "city": "库塔伊西",
      "latitude": 42.1767,
      "longitude": 42.4825
    },
    {
      "code": "LCA",
      "name": "拉纳卡国际机场",
      "city": "拉纳卡",
      "latitude": 34.8751,
      "longitude": 33.6249
    },
    {
      "code": "PFO",
      "name": "帕福斯国际机场",
      "city": "帕福斯",
      "latitude": 34.718,
      "longitude": 32.4856
    },
    {
      "code": "MLT",
      "name": "马耳他国际机场",
      "city": "瓦莱塔",
      "latitude": 35.8575,
      "longitude": 14.4775
    },
    {
      "code": "LUX",
      "name": "卢森堡芬德尔机场",
      "city": "卢森堡",
      "latitude": 49.6233,
      "longitude": 6.2144
    },
    {
      "code": "GIB",
      "name": "直布罗陀机场",
      "city": "直布罗陀",
      "latitude": 36.1511,
      "longitude": -5.3497
    },
    {
      "code": "AND",
      "name": "安道尔机场",
      "city": "安道尔城",
      "latitude": 42.5063,
      "longitude": 1.5218
    },
    {
      "code": "SMI",
      "name": "圣马力诺机场",
      "city": "圣马力诺",
      "latitude": 43.9368,
      "longitude": 12.4467
    },
    {
      "code": "VAT",
      "name": "梵蒂冈机场",
      "city": "梵蒂冈城",
      "latitude": 41.9028,
      "longitude": 12.4536
    },
    {
      "code": "MON",
      "name": "摩纳哥机场",
      "city": "摩纳哥",
      "latitude": 43.7384,
      "longitude": 7.4206
    },
    {
      "code": "LIE",
      "name": "列支敦士登机场",
      "city": "瓦杜兹",
      "latitude": 47.1417,
      "longitude": 9.5208
    },
    {
      "code": "FRO",
      "name": "法罗群岛机场",
      "city": "托尔斯港",
      "latitude": 62.0639,
      "longitude": -7.2772
    },
    {
      "code": "JER",
      "name": "泽西岛机场",
      "city": "圣赫利尔",
      "latitude": 49.2078,
      "longitude": -2.195
    },
    {
      "code": "GCI",
      "name": "根西岛机场",
      "city": "圣彼得港",
      "latitude": 49.435,
      "longitude": -2.6017
    },
    {
      "code": "IOM",
      "name": "马恩岛机场",
      "city": "道格拉斯",
      "latitude": 54.0833,
      "longitude": -4.6239
    },
    {
      "code": "SHE",
      "name": "设得兰群岛机场",
      "city": "勒威克",
      "latitude": 60.4322,
      "longitude": -1.2956
    },
    {
      "code": "ORK",
      "name": "奥克尼群岛机场",
      "city": "柯克沃尔",
      "latitude": 58.9578,
      "longitude": -2.905
    },
    {
      "code": "HEB",
      "name": "赫布里底群岛机场",
      "city": "斯托诺韦",
      "latitude": 58.2156,
      "longitude": -6.3311
    },
    {
      "code": "SKY",
      "name": "斯凯岛机场",
      "city": "波特里",
      "latitude": 57.4128,
      "longitude": -6.2067
    },
    {
      "code": "ISL",
      "name": "艾莱岛机场",
      "city": "鲍莫尔",
      "latitude": 55.6811,
      "longitude": -6.2567
    },
    {
      "code": "KRK",
      "name": "克拉科夫约翰·保罗二世国际机场",
      "city": "克拉科夫",
      "latitude": 50.0778,
      "longitude": 19.7848
    },
    {
      "code": "GDN",
      "name": "格但斯克列赫·瓦文萨机场",
      "city": "格但斯克",
      "latitude": 54.3776,
      "longitude": 18.4661
    },
    {
      "code": "WRO",
      "name": "弗罗茨瓦夫机场",
      "city": "弗罗茨瓦夫",
      "latitude": 51.1027,
      "longitude": 16.8858
    },
    {
      "code": "POZ",
      "name": "波兹南机场",
      "city": "波兹南",
      "latitude": 52.421,
      "longitude": 16.8263
    },
    {
      "code": "KTW",
      "name": "卡托维兹机场",
      "city": "卡托维兹",
      "latitude": 50.4743,
      "longitude": 19.08
    },
    {
      "code": "LUZ",
      "name": "卢布林机场",
      "city": "卢布林",
      "latitude": 51.2406,
      "longitude": 22.7139
    },
    {
      "code": "RZE",
      "name": "热舒夫机场",
      "city": "热舒夫",
      "latitude": 50.11,
      "longitude": 22.0189
    },
    {
      "code": "SZZ",
      "name": "什切青机场",
      "city": "什切青",
      "latitude": 53.5847,
      "longitude": 14.9022
    },
    {
      "code": "BYD",
      "name": "比得哥什机场",
      "city": "比得哥什",
      "latitude": 53.0968,
      "longitude": 17.9772
    },
    {
      "code": "IEG",
      "name": "济林纳机场",
      "city": "济林纳",
      "latitude": 49.2314,
      "longitude": 18.6133
    },
    {
      "code": "TAT",
      "name": "波普拉德机场",
      "city": "波普拉德",
      "latitude": 49.0736,
      "longitude": 20.2411
    },
    {
      "code": "KSC",
      "name": "科希策机场",
      "city": "科希策",
      "latitude": 48.6631,
      "longitude": 21.2411
    },
    {
      "code": "SLD",
      "name": "斯利亚奇机场",
      "city": "斯利亚奇",
      "latitude": 48.6378,
      "longitude": 19.1342
    },
    {
      "code": "PiS",
      "name": "皮耶什佳尼机场",
      "city": "皮耶什佳尼",
      "latitude": 48.625,
      "longitude": 17.8278
    },
    {
      "code": "DBV",
      "name": "杜布罗夫尼克机场",
      "city": "杜布罗夫尼克",
      "latitude": 42.5614,
      "longitude": 18.2683
    },
    {
      "code": "SPU",
      "name": "斯普利特机场",
      "city": "斯普利特",
      "latitude": 43.5389,
      "longitude": 16.2978
    },
    {
      "code": "ZAD",
      "name": "扎达尔机场",
      "city": "扎达尔",
      "latitude": 44.1083,
      "longitude": 15.3467
    },
    {
      "code": "PUY",
      "name": "普拉机场",
      "city": "普拉",
      "latitude": 44.8935,
      "longitude": 13.9222
    },
    {
      "code": "RJK",
      "name": "里耶卡机场",
      "city": "里耶卡",
      "latitude": 45.2169,
      "longitude": 14.5703
    },
    {
      "code": "OSI",
      "name": "奥西耶克机场",
      "city": "奥西耶克",
      "latitude": 45.4628,
      "longitude": 18.81
    },
    {
      "code": "BWK",
      "name": "布拉奇岛机场",
      "city": "博尔",
      "latitude": 43.2858,
      "longitude": 16.6797
    },
    {
      "code": "LSZ",
      "name": "洛希尼机场",
      "city": "洛希尼",
      "latitude": 44.565,
      "longitude": 14.3933
    },
    {
      "code": "LJU",
      "name": "卢布尔雅那约热·普奇尼克机场",
      "city": "卢布尔雅那",
      "latitude": 46.2238,
      "longitude": 14.4576
    },
    {
      "code": "MBX",
      "name": "马里博尔机场",
      "city": "马里博尔",
      "latitude": 46.4797,
      "longitude": 15.6861
    },
    {
      "code": "POW",
      "name": "波尔托罗机场",
      "city": "波尔托罗",
      "latitude": 45.4733,
      "longitude": 13.615
    },
    {
      "code": "BEG",
      "name": "贝尔格莱德尼古拉·特斯拉机场",
      "city": "贝尔格莱德",
      "latitude": 44.8184,
      "longitude": 20.3091
    },
    {
      "code": "INI",
      "name": "尼什机场",
      "city": "尼什",
      "latitude": 43.3372,
      "longitude": 21.8537
    },
    {
      "code": "UZC",
      "name": "乌日策机场",
      "city": "乌日策",
      "latitude": 43.8606,
      "longitude": 19.9628
    },
    {
      "code": "KVO",
      "name": "克拉列沃机场",
      "city": "克拉列沃",
      "latitude": 43.825,
      "longitude": 20.5889
    },
    {
      "code": "VRS",
      "name": "弗尔沙茨机场",
      "city": "弗尔沙茨",
      "latitude": 45.1833,
      "longitude": 21.3
    },
    {
      "code": "SJJ",
      "name": "萨拉热窝国际机场",
      "city": "萨拉热窝",
      "latitude": 43.8246,
      "longitude": 18.3315
    },
    {
      "code": "BNX",
      "name": "巴尼亚卢卡机场",
      "city": "巴尼亚卢卡",
      "latitude": 44.9414,
      "longitude": 17.2975
    },
    {
      "code": "OMO",
      "name": "莫斯塔尔机场",
      "city": "莫斯塔尔",
      "latitude": 43.2828,
      "longitude": 17.8458
    },
    {
      "code": "TUZ",
      "name": "图兹拉机场",
      "city": "图兹拉",
      "latitude": 44.4586,
      "longitude": 18.7247
    },
    {
      "code": "TGD",
      "name": "波德戈里察机场",
      "city": "波德戈里察",
      "latitude": 42.3594,
      "longitude": 19.2519
    },
    {
      "code": "TIV",
      "name": "蒂瓦特机场",
      "city": "蒂瓦特",
      "latitude": 42.4047,
      "longitude": 18.7233
    },
    {
      "code": "PRN",
      "name": "普里什蒂纳机场",
      "city": "普里什蒂纳",
      "latitude": 42.5728,
      "longitude": 21.0358
    },
    {
      "code": "SKP",
      "name": "斯科普里机场",
      "city": "斯科普里",
      "latitude": 41.9617,
      "longitude": 21.6214
    },
    {
      "code": "OHD",
      "name": "奥赫里德机场",
      "city": "奥赫里德",
      "latitude": 41.18,
      "longitude": 20.7422
    },
    {
      "code": "TIA",
      "name": "地拉那机场",
      "city": "地拉那",
      "latitude": 41.4147,
      "longitude": 19.7206
    },
    {
      "code": "KU",
      "name": "库克斯机场",
      "city": "库克斯",
      "latitude": 42.0417,
      "longitude": 20.4167
    },
    {
      "code": "SOF",
      "name": "索菲亚机场",
      "city": "索菲亚",
      "latitude": 42.6969,
      "longitude": 23.4114
    },
    {
      "code": "VAR",
      "name": "瓦尔纳机场",
      "city": "瓦尔纳",
      "latitude": 43.2322,
      "longitude": 27.8251
    },
    {
      "code": "BOJ",
      "name": "布尔加斯机场",
      "city": "布尔加斯",
      "latitude": 42.5695,
      "longitude": 27.5152
    },
    {
      "code": "PDV",
      "name": "普罗夫迪夫机场",
      "city": "普罗夫迪夫",
      "latitude": 42.0678,
      "longitude": 24.8508
    },
    {
      "code": "GOZ",
      "name": "戈尔纳奥里亚霍维察机场",
      "city": "戈尔纳奥里亚霍维察",
      "latitude": 43.1514,
      "longitude": 25.7128
    },
    {
      "code": "SLS",
      "name": "锡利斯特拉机场",
      "city": "锡利斯特拉",
      "latitude": 44.1167,
      "longitude": 27.2611
    },
    {
      "code": "OTP",
      "name": "布加勒斯特奥托佩尼国际机场",
      "city": "布加勒斯特",
      "latitude": 44.5722,
      "longitude": 26.1025
    },
    {
      "code": "BBU",
      "name": "布加勒斯特巴内亚萨机场",
      "city": "布加勒斯特",
      "latitude": 44.5033,
      "longitude": 26.0803
    },
    {
      "code": "CLJ",
      "name": "克卢日机场",
      "city": "克卢日",
      "latitude": 46.7852,
      "longitude": 23.6862
    },
    {
      "code": "TSR",
      "name": "蒂米什瓦拉机场",
      "city": "蒂米什瓦拉",
      "latitude": 45.8099,
      "longitude": 21.3378
    },
    {
      "code": "IAS",
      "name": "雅西机场",
      "city": "雅西",
      "latitude": 47.1785,
      "longitude": 27.6206
    },
    {
      "code": "CND",
      "name": "康斯坦察机场",
      "city": "康斯坦察",
      "latitude": 44.3622,
      "longitude": 28.4883
    },
    {
      "code": "SCV",
      "name": "苏恰瓦机场",
      "city": "苏恰瓦",
      "latitude": 47.6875,
      "longitude": 26.3539
    },
    {
      "code": "BCM",
      "name": "巴克乌机场",
      "city": "巴克乌",
      "latitude": 46.5217,
      "longitude": 26.91
    },
    {
      "code": "SBZ",
      "name": "锡比乌机场",
      "city": "锡比乌",
      "latitude": 45.7856,
      "longitude": 24.0911
    },
    {
      "code": "TGM",
      "name": "特尔古穆列什机场",
      "city": "特尔古穆列什",
      "latitude": 46.4678,
      "longitude": 24.4125
    },
    {
      "code": "OMR",
      "name": "奥拉迪亚机场",
      "city": "奥拉迪亚",
      "latitude": 47.0253,
      "longitude": 21.9025
    },
    {
      "code": "ARA",
      "name": "阿拉德机场",
      "city": "阿拉德",
      "latitude": 46.1765,
      "longitude": 21.2617
    },
    {
      "code": "CRA",
      "name": "克拉约瓦机场",
      "city": "克拉约瓦",
      "latitude": 44.3181,
      "longitude": 23.8886
    },
    {
      "code": "CSB",
      "name": "卡兰塞贝什机场",
      "city": "卡兰塞贝什",
      "latitude": 45.42,
      "longitude": 22.2528
    },
    {
      "code": "TLV",
      "name": "本古里安国际机场",
      "city": "特拉维夫",
      "latitude": 32.0114,
      "longitude": 34.8867
    },
    {
      "code": "HFA",
      "name": "海法机场",
      "city": "海法",
      "latitude": 32.8094,
      "longitude": 35.0431
    },
    {
      "code": "ETH",
      "name": "埃拉特机场",
      "city": "埃拉特",
      "latitude": 29.5611,
      "longitude": 34.9581
    },
    {
      "code": "VDA",
      "name": "奥夫达机场",
      "city": "埃拉特",
      "latitude": 29.7003,
      "longitude": 35.0122
    },
    {
      "code": "RPN",
      "name": "拉蒙机场",
      "city": "米茨佩拉蒙",
      "latitude": 30.7761,
      "longitude": 34.6667
    },
    {
      "code": "AMM",
      "name": "阿曼女王阿利娅国际机场",
      "city": "安曼",
      "latitude": 31.7228,
      "longitude": 35.9933
    },
    {
      "code": "ADJ",
      "name": "安曼民用机场",
      "city": "安曼",
      "latitude": 31.9728,
      "longitude": 35.9917
    },
    {
      "code": "AQJ",
      "name": "亚喀巴机场",
      "city": "亚喀巴",
      "latitude": 29.6117,
      "longitude": 35.0181
    },
    {
      "code": "DAM",
      "name": "大马士革国际机场",
      "city": "大马士革",
      "latitude": 33.4106,
      "longitude": 36.5156
    },
    {
      "code": "ALP",
      "name": "阿勒颇国际机场",
      "city": "阿勒颇",
      "latitude": 36.1806,
      "longitude": 37.2244
    },
    {
      "code": "LTK",
      "name": "拉塔基亚机场",
      "city": "拉塔基亚",
      "latitude": 35.4011,
      "longitude": 35.9489
    },
    {
      "code": "KAC",
      "name": "卡米什利机场",
      "city": "卡米什利",
      "latitude": 37.0206,
      "longitude": 41.1914
    },
    {
      "code": "DEZ",
      "name": "代尔祖尔机场",
      "city": "代尔祖尔",
      "latitude": 35.285,
      "longitude": 40.1758
    },
    {
      "code": "PMS",
      "name": "帕尔米拉机场",
      "city": "帕尔米拉",
      "latitude": 34.5575,
      "longitude": 38.3169
    },
    {
      "code": "BEY",
      "name": "贝鲁特拉菲克·哈里里国际机场",
      "city": "贝鲁特",
      "latitude": 33.8209,
      "longitude": 35.4884
    },
    {
      "code": "KYE",
      "name": "克莱亚特机场",
      "city": "克莱亚特",
      "latitude": 34.5889,
      "longitude": 36.0114
    },
    {
      "code": "BAH",
      "name": "巴林国际机场",
      "city": "麦纳麦",
      "latitude": 26.2708,
      "longitude": 50.6336
    },
    {
      "code": "KWI",
      "name": "科威特国际机场",
      "city": "科威特城",
      "latitude": 29.2267,
      "longitude": 47.9689
    },
    {
      "code": "SHJ",
      "name": "沙迦国际机场",
      "city": "沙迦",
      "latitude": 25.3286,
      "longitude": 55.5172
    },
    {
      "code": "RKT",
      "name": "拉斯海马机场",
      "city": "拉斯海马",
      "latitude": 25.6145,
      "longitude": 55.9388
    },
    {
      "code": "FJR",
      "name": "富查伊拉机场",
      "city": "富查伊拉",
      "latitude": 25.1122,
      "longitude": 56.324
    },
    {
      "code": "AAN",
      "name": "阿尔艾因机场",
      "city": "阿尔艾因",
      "latitude": 24.2617,
      "longitude": 55.6092
    },
    {
      "code": "MCT",
      "name": "马斯喀特国际机场",
      "city": "马斯喀特",
      "latitude": 23.5933,
      "longitude": 58.2844
    },
    {
      "code": "SLL",
      "name": "萨拉拉机场",
      "city": "萨拉拉",
      "latitude": 17.0389,
      "longitude": 54.0913
    },
    {
      "code": "SHR",
      "name": "沙鲁拉机场",
      "city": "沙鲁拉",
      "latitude": 17.4667,
      "longitude": 55.4
    },
    {
      "code": "KHS",
      "name": "哈西卜机场",
      "city": "哈西卜",
      "latitude": 26.1711,
      "longitude": 56.2406
    },
    {
      "code": "RIY",
      "name": "利雅得哈立德国王国际机场",
      "city": "利雅得",
      "latitude": 24.9576,
      "longitude": 46.6988
    },
    {
      "code": "JED",
      "name": "吉达阿卜杜勒阿齐兹国王国际机场",
      "city": "吉达",
      "latitude": 21.6796,
      "longitude": 39.1565
    },
    {
      "code": "DMM",
      "name": "达曼法赫德国王国际机场",
      "city": "达曼",
      "latitude": 26.4712,
      "longitude": 49.7979
    },
    {
      "code": "MED",
      "name": "麦地那穆罕默德·本·阿卜杜勒阿齐兹亲王国际机场",
      "city": "麦地那",
      "latitude": 24.5533,
      "longitude": 39.705
    },
    {
      "code": "TUU",
      "name": "塔布克机场",
      "city": "塔布克",
      "latitude": 28.3654,
      "longitude": 36.6189
    },
    {
      "code": "AHB",
      "name": "阿卜哈机场",
      "city": "阿卜哈",
      "latitude": 18.2404,
      "longitude": 42.6566
    },
    {
      "code": "GIZ",
      "name": "吉赞机场",
      "city": "吉赞",
      "latitude": 16.9011,
      "longitude": 42.5858
    },
    {
      "code": "EAM",
      "name": "奈季兰机场",
      "city": "奈季兰",
      "latitude": 17.6114,
      "longitude": 44.4192
    },
    {
      "code": "HOF",
      "name": "霍夫机场",
      "city": "霍夫",
      "latitude": 25.2853,
      "longitude": 49.4853
    },
    {
      "code": "URY",
      "name": "古赖亚特机场",
      "city": "古赖亚特",
      "latitude": 31.4117,
      "longitude": 37.2794
    },
    {
      "code": "RAE",
      "name": "阿尔拉斯机场",
      "city": "阿尔拉斯",
      "latitude": 25.8433,
      "longitude": 43.4906
    },
    {
      "code": "ELQ",
      "name": "布赖代机场",
      "city": "布赖代",
      "latitude": 26.3025,
      "longitude": 43.7706
    },
    {
      "code": "HAS",
      "name": "哈伊勒机场",
      "city": "哈伊勒",
      "latitude": 27.4379,
      "longitude": 41.6863
    },
    {
      "code": "SAN",
      "name": "萨那国际机场",
      "city": "萨那",
      "latitude": 15.4763,
      "longitude": 44.2194
    },
    {
      "code": "ADE",
      "name": "亚丁国际机场",
      "city": "亚丁",
      "latitude": 12.8295,
      "longitude": 45.0288
    },
    {
      "code": "HOD",
      "name": "荷台达机场",
      "city": "荷台达",
      "latitude": 14.7533,
      "longitude": 42.9763
    },
    {
      "code": "TAI",
      "name": "塔伊兹机场",
      "city": "塔伊兹",
      "latitude": 13.6859,
      "longitude": 44.1391
    },
    {
      "code": "MYN",
      "name": "马里卜机场",
      "city": "马里卜",
      "latitude": 15.467,
      "longitude": 45.3272
    },
    {
      "code": "SAH",
      "name": "萨达机场",
      "city": "萨达",
      "latitude": 16.9739,
      "longitude": 43.765
    },
    {
      "code": "BGW",
      "name": "巴格达国际机场",
      "city": "巴格达",
      "latitude": 33.2625,
      "longitude": 44.2345
    },
    {
      "code": "BSR",
      "name": "巴士拉国际机场",
      "city": "巴士拉",
      "latitude": 30.5489,
      "longitude": 47.6621
    },
    {
      "code": "EBL",
      "name": "埃尔比勒国际机场",
      "city": "埃尔比勒",
      "latitude": 36.2375,
      "longitude": 43.9631
    },
    {
      "code": "ISU",
      "name": "苏莱曼尼亚机场",
      "city": "苏莱曼尼亚",
      "latitude": 35.5608,
      "longitude": 45.3147
    },
    {
      "code": "NJF",
      "name": "纳杰夫国际机场",
      "city": "纳杰夫",
      "latitude": 31.99,
      "longitude": 44.4044
    },
    {
      "code": "XNH",
      "name": "纳西里耶机场",
      "city": "纳西里耶",
      "latitude": 30.9358,
      "longitude": 46.09
    },
    {
      "code": "KIK",
      "name": "基尔库克机场",
      "city": "基尔库克",
      "latitude": 35.4697,
      "longitude": 44.3486
    },
    {
      "code": "OSM",
      "name": "摩苏尔机场",
      "city": "摩苏尔",
      "latitude": 36.3058,
      "longitude": 43.1472
    },
    {
      "code": "RMD",
      "name": "拉马迪机场",
      "city": "拉马迪",
      "latitude": 33.4806,
      "longitude": 43.3028
    },
    {
      "code": "TKR",
      "name": "提克里特机场",
      "city": "提克里特",
      "latitude": 34.5889,
      "longitude": 43.6778
    },
    {
      "code": "IKA",
      "name": "德黑兰伊玛目霍梅尼国际机场",
      "city": "德黑兰",
      "latitude": 35.4161,
      "longitude": 51.1522
    },
    {
      "code": "THR",
      "name": "德黑兰梅赫拉巴德国际机场",
      "city": "德黑兰",
      "latitude": 35.6892,
      "longitude": 51.3133
    },
    {
      "code": "IFN",
      "name": "伊斯法罕国际机场",
      "city": "伊斯法罕",
      "latitude": 32.7508,
      "longitude": 51.8611
    },
    {
      "code": "SYZ",
      "name": "设拉子国际机场",
      "city": "设拉子",
      "latitude": 29.5392,
      "longitude": 52.5897
    },
    {
      "code": "MHD",
      "name": "马什哈德国际机场",
      "city": "马什哈德",
      "latitude": 36.2351,
      "longitude": 59.6408
    },
    {
      "code": "TBZ",
      "name": "大不里士国际机场",
      "city": "大不里士",
      "latitude": 38.1339,
      "longitude": 46.235
    },
    {
      "code": "AWZ",
      "name": "阿瓦士机场",
      "city": "阿瓦士",
      "latitude": 31.3372,
      "longitude": 48.7619
    },
    {
      "code": "KER",
      "name": "克尔曼机场",
      "city": "克尔曼",
      "latitude": 30.2744,
      "longitude": 56.9558
    },
    {
      "code": "BND",
      "name": "阿巴斯港机场",
      "city": "阿巴斯港",
      "latitude": 27.2183,
      "longitude": 56.3778
    },
    {
      "code": "ZAH",
      "name": "扎黑丹机场",
      "city": "扎黑丹",
      "latitude": 29.4758,
      "longitude": 60.9061
    },
    {
      "code": "RAS",
      "name": "拉什特机场",
      "city": "拉什特",
      "latitude": 37.325,
      "longitude": 49.6167
    },
    {
      "code": "GBT",
      "name": "戈尔甘机场",
      "city": "戈尔甘",
      "latitude": 36.9094,
      "longitude": 54.4011
    },
    {
      "code": "SRY",
      "name": "萨里机场",
      "city": "萨里",
      "latitude": 36.6356,
      "longitude": 53.1933
    },
    {
      "code": "BUZ",
      "name": "布什尔机场",
      "city": "布什尔",
      "latitude": 28.9445,
      "longitude": 50.8345
    },
    {
      "code": "KIH",
      "name": "基什岛国际机场",
      "city": "基什岛",
      "latitude": 26.5261,
      "longitude": 53.9802
    },
    {
      "code": "LRR",
      "name": "拉尔机场",
      "city": "拉尔",
      "latitude": 27.6742,
      "longitude": 54.3833
    },
    {
      "code": "HDM",
      "name": "哈马丹机场",
      "city": "哈马丹",
      "latitude": 34.8692,
      "longitude": 48.5528
    },
    {
      "code": "SDG",
      "name": "桑南达季机场",
      "city": "桑南达季",
      "latitude": 36.9883,
      "longitude": 55.0417
    },
    {
      "code": "URD",
      "name": "乌尔米耶机场",
      "city": "乌尔米耶",
      "latitude": 37.6683,
      "longitude": 45.0686
    },
    {
      "code": "ACP",
      "name": "萨拉克斯机场",
      "city": "萨拉克斯",
      "latitude": 38.45,
      "longitude": 48.4833
    },
    {
      "code": "ADU",
      "name": "阿尔达比勒机场",
      "city": "阿尔达比勒",
      "latitude": 38.3256,
      "longitude": 48.4244
    },
    {
      "code": "YES",
      "name": "亚苏季机场",
      "city": "亚苏季",
      "latitude": 30.7006,
      "longitude": 51.545
    },
    {
      "code": "DEF",
      "name": "德兹富勒机场",
      "city": "德兹富勒",
      "latitude": 32.4333,
      "longitude": 48.3972
    },
    {
      "code": "IIL",
      "name": "伊拉姆机场",
      "city": "伊拉姆",
      "latitude": 33.5867,
      "longitude": 46.405
    },
    {
      "code": "LFM",
      "name": "拉姆萨尔机场",
      "city": "拉姆萨尔",
      "latitude": 36.9167,
      "longitude": 50.6833
    },
    {
      "code": "NSH",
      "name": "诺沙赫尔机场",
      "city": "诺沙赫尔",
      "latitude": 36.65,
      "longitude": 51.4667
    },
    {
      "code": "KHY",
      "name": "霍伊机场",
      "city": "霍伊",
      "latitude": 38.5278,
      "longitude": 44.9722
    },
    {
      "code": "PGU",
      "name": "阿萨卢耶机场",
      "city": "阿萨卢耶",
      "latitude": 27.4833,
      "longitude": 52.6167
    },
    {
      "code": "JYR",
      "name": "吉罗夫特机场",
      "city": "吉罗夫特",
      "latitude": 28.6778,
      "longitude": 57.6706
    },
    {
      "code": "CQD",
      "name": "沙赫尔库尔德机场",
      "city": "沙赫尔库尔德",
      "latitude": 32.2972,
      "longitude": 50.8422
    },
    {
      "code": "XBJ",
      "name": "比尔詹德机场",
      "city": "比尔詹德",
      "latitude": 32.8944,
      "longitude": 59.2661
    },
    {
      "code": "AFG",
      "name": "喀布尔哈米德·卡尔扎伊国际机场",
      "city": "喀布尔",
      "latitude": 34.5658,
      "longitude": 69.2123
    },
    {
      "code": "HEA",
      "name": "赫拉特机场",
      "city": "赫拉特",
      "latitude": 34.21,
      "longitude": 62.2283
    },
    {
      "code": "KDH",
      "name": "坎大哈机场",
      "city": "坎大哈",
      "latitude": 31.5058,
      "longitude": 65.8478
    },
    {
      "code": "MZR",
      "name": "马扎里沙里夫机场",
      "city": "马扎里沙里夫",
      "latitude": 36.7089,
      "longitude": 67.2097
    },
    {
      "code": "JAA",
      "name": "贾拉拉巴德机场",
      "city": "贾拉拉巴德",
      "latitude": 34.3997,
      "longitude": 70.4986
    },
    {
      "code": "KWH",
      "name": "霍斯特机场",
      "city": "霍斯特",
      "latitude": 33.5833,
      "longitude": 69.95
    },
    {
      "code": "BIN",
      "name": "巴米扬机场",
      "city": "巴米扬",
      "latitude": 34.8167,
      "longitude": 67.8167
    },
    {
      "code": "FBD",
      "name": "费扎巴德机场",
      "city": "费扎巴德",
      "latitude": 37.1211,
      "longitude": 70.5181
    },
    {
      "code": "LQN",
      "name": "昆都士机场",
      "city": "昆都士",
      "latitude": 36.6653,
      "longitude": 68.9108
    },
    {
      "code": "GZN",
      "name": "加兹尼机场",
      "city": "加兹尼",
      "latitude": 33.5311,
      "longitude": 68.4167
    },
    {
      "code": "KAR",
      "name": "卡拉奇真纳国际机场",
      "city": "卡拉奇",
      "latitude": 24.9065,
      "longitude": 67.1608
    },
    {
      "code": "LHE",
      "name": "拉合尔阿拉马·伊克巴勒国际机场",
      "city": "拉合尔",
      "latitude": 31.5214,
      "longitude": 74.4036
    },
    {
      "code": "ISB",
      "name": "伊斯兰堡国际机场",
      "city": "伊斯兰堡",
      "latitude": 33.6149,
      "longitude": 72.9951
    },
    {
      "code": "PEW",
      "name": "白沙瓦机场",
      "city": "白沙瓦",
      "latitude": 33.9939,
      "longitude": 71.5147
    },
    {
      "code": "UET",
      "name": "奎达机场",
      "city": "奎达",
      "latitude": 30.2514,
      "longitude": 66.9378
    },
    {
      "code": "MUX",
      "name": "木尔坦机场",
      "city": "木尔坦",
      "latitude": 30.2032,
      "longitude": 71.4191
    },
    {
      "code": "FSD",
      "name": "费萨拉巴德机场",
      "city": "费萨拉巴德",
      "latitude": 31.3649,
      "longitude": 72.9948
    },
    {
      "code": "SKT",
      "name": "锡亚尔科特机场",
      "city": "锡亚尔科特",
      "latitude": 32.5356,
      "longitude": 74.3639
    },
    {
      "code": "BWP",
      "name": "巴哈瓦尔布尔机场",
      "city": "巴哈瓦尔布尔",
      "latitude": 29.3481,
      "longitude": 71.718
    },
    {
      "code": "GWD",
      "name": "瓜达尔机场",
      "city": "瓜达尔",
      "latitude": 25.2333,
      "longitude": 62.325
    },
    {
      "code": "TUK",
      "name": "图尔巴特机场",
      "city": "图尔巴特",
      "latitude": 25.9844,
      "longitude": 63.0302
    },
    {
      "code": "PJG",
      "name": "潘杰古尔机场",
      "city": "潘杰古尔",
      "latitude": 26.9545,
      "longitude": 64.1325
    },
    {
      "code": "MAA",
      "name": "金奈国际机场",
      "city": "金奈",
      "latitude": 12.9944,
      "longitude": 80.1806
    },
    {
      "code": "CCU",
      "name": "内塔吉·苏巴斯·钱德拉·鲍斯国际机场",
      "city": "加尔各答",
      "latitude": 22.6547,
      "longitude": 88.4467
    },
    {
      "code": "HYD",
      "name": "拉吉夫·甘地国际机场",
      "city": "海得拉巴",
      "latitude": 17.2313,
      "longitude": 78.4297
    },
    {
      "code": "AMD",
      "name": "萨达尔·瓦拉巴伊·帕特尔国际机场",
      "city": "艾哈迈达巴德",
      "latitude": 23.0772,
      "longitude": 72.6347
    },
    {
      "code": "PNQ",
      "name": "浦那机场",
      "city": "浦那",
      "latitude": 18.582,
      "longitude": 73.9197
    },
    {
      "code": "GOI",
      "name": "果阿机场",
      "city": "果阿",
      "latitude": 15.3808,
      "longitude": 73.8314
    },
    {
      "code": "COK",
      "name": "科钦国际机场",
      "city": "科钦",
      "latitude": 10.152,
      "longitude": 76.4019
    },
    {
      "code": "TRV",
      "name": "特里凡得琅国际机场",
      "city": "特里凡得琅",
      "latitude": 8.4821,
      "longitude": 76.9201
    },
    {
      "code": "JAI",
      "name": "斋浦尔国际机场",
      "city": "斋浦尔",
      "latitude": 26.8242,
      "longitude": 75.8122
    },
    {
      "code": "LKO",
      "name": "勒克瑙机场",
      "city": "勒克瑙",
      "latitude": 26.7606,
      "longitude": 80.8893
    },
    {
      "code": "VNS",
      "name": "瓦拉纳西机场",
      "city": "瓦拉纳西",
      "latitude": 25.452,
      "longitude": 82.8594
    },
    {
      "code": "PAT",
      "name": "巴特那机场",
      "city": "巴特那",
      "latitude": 25.5913,
      "longitude": 85.0878
    },
    {
      "code": "BHU",
      "name": "布巴内什瓦尔机场",
      "city": "布巴内什瓦尔",
      "latitude": 20.2444,
      "longitude": 85.8178
    },
    {
      "code": "VGA",
      "name": "维杰亚瓦达机场",
      "city": "维杰亚瓦达",
      "latitude": 16.5304,
      "longitude": 80.7968
    },
    {
      "code": "VTZ",
      "name": "维沙卡帕特南机场",
      "city": "维沙卡帕特南",
      "latitude": 17.7211,
      "longitude": 83.2245
    },
    {
      "code": "TIR",
      "name": "蒂鲁吉拉帕利机场",
      "city": "蒂鲁吉拉帕利",
      "latitude": 10.7654,
      "longitude": 78.7097
    },
    {
      "code": "MDU",
      "name": "马杜赖机场",
      "city": "马杜赖",
      "latitude": 9.8345,
      "longitude": 78.0934
    },
    {
      "code": "CJB",
      "name": "哥印拜陀机场",
      "city": "哥印拜陀",
      "latitude": 11.03,
      "longitude": 77.0439
    },
    {
      "code": "IXM",
      "name": "马杜赖机场",
      "city": "马杜赖",
      "latitude": 9.8345,
      "longitude": 78.0934
    },
    {
      "code": "IXE",
      "name": "芒格洛尔机场",
      "city": "芒格洛尔",
      "latitude": 12.9612,
      "longitude": 74.89
    },
    {
      "code": "IXG",
      "name": "贝尔高姆机场",
      "city": "贝尔高姆",
      "latitude": 15.8593,
      "longitude": 74.6183
    },
    {
      "code": "HBX",
      "name": "胡布利机场",
      "city": "胡布利",
      "latitude": 15.3617,
      "longitude": 75.085
    },
    {
      "code": "IXJ",
      "name": "贾姆谢德布尔机场",
      "city": "贾姆谢德布尔",
      "latitude": 22.8133,
      "longitude": 86.1528
    },
    {
      "code": "IXR",
      "name": "兰契机场",
      "city": "兰契",
      "latitude": 23.3143,
      "longitude": 85.3217
    },
    {
      "code": "GAU",
      "name": "古瓦哈提机场",
      "city": "古瓦哈提",
      "latitude": 26.1061,
      "longitude": 91.5859
    },
    {
      "code": "IMP",
      "name": "英帕尔机场",
      "city": "英帕尔",
      "latitude": 24.76,
      "longitude": 93.8967
    },
    {
      "code": "AJL",
      "name": "阿加尔塔拉机场",
      "city": "阿加尔塔拉",
      "latitude": 23.887,
      "longitude": 91.2404
    },
    {
      "code": "SHL",
      "name": "希隆机场",
      "city": "希隆",
      "latitude": 25.7033,
      "longitude": 91.9789
    },
    {
      "code": "DIB",
      "name": "迪布鲁格尔机场",
      "city": "迪布鲁格尔",
      "latitude": 27.4839,
      "longitude": 95.0169
    },
    {
      "code": "TEZ",
      "name": "特兹普尔机场",
      "city": "特兹普尔",
      "latitude": 26.7089,
      "longitude": 92.7847
    },
    {
      "code": "IXS",
      "name": "锡尔恰尔机场",
      "city": "锡尔恰尔",
      "latitude": 24.9129,
      "longitude": 92.9787
    },
    {
      "code": "IXH",
      "name": "卡尔加机场",
      "city": "卡尔加",
      "latitude": 25.68,
      "longitude": 94.0978
    },
    {
      "code": "ZER",
      "name": "泽罗机场",
      "city": "泽罗",
      "latitude": 27.5883,
      "longitude": 94
    },
    {
      "code": "IXA",
      "name": "阿加蒂机场",
      "city": "阿加蒂",
      "latitude": 10.9222,
      "longitude": 72.1761
    },
    {
      "code": "IXV",
      "name": "阿隆机场",
      "city": "阿隆",
      "latitude": 25.1756,
      "longitude": 94.2117
    },
    {
      "code": "IXN",
      "name": "哈扎里巴格机场",
      "city": "哈扎里巴格",
      "latitude": 23.9833,
      "longitude": 85.35
    },
    {
      "code": "IXY",
      "name": "坎德拉机场",
      "city": "坎德拉",
      "latitude": 23.87,
      "longitude": 78.7333
    },
    {
      "code": "IXI",
      "name": "利拉巴里机场",
      "city": "利拉巴里",
      "latitude": 27.2956,
      "longitude": 94.0972
    },
    {
      "code": "IXL",
      "name": "列城机场",
      "city": "列城",
      "latitude": 34.1358,
      "longitude": 77.5465
    },
    {
      "code": "SXR",
      "name": "斯利那加机场",
      "city": "斯利那加",
      "latitude": 34.0854,
      "longitude": 74.7742
    },
    {
      "code": "JMU",
      "name": "查谟机场",
      "city": "查谟",
      "latitude": 32.6889,
      "longitude": 74.8378
    },
    {
      "code": "IXC",
      "name": "昌迪加尔机场",
      "city": "昌迪加尔",
      "latitude": 30.6735,
      "longitude": 76.7885
    },
    {
      "code": "ATQ",
      "name": "阿姆利则机场",
      "city": "阿姆利则",
      "latitude": 31.7096,
      "longitude": 74.7973
    },
    {
      "code": "LUH",
      "name": "卢迪亚纳机场",
      "city": "卢迪亚纳",
      "latitude": 30.8547,
      "longitude": 75.9525
    },
    {
      "code": "PGH",
      "name": "潘特纳格尔机场",
      "city": "潘特纳格尔",
      "latitude": 29.0333,
      "longitude": 79.4733
    },
    {
      "code": "DED",
      "name": "德拉敦机场",
      "city": "德拉敦",
      "latitude": 30.1897,
      "longitude": 78.1802
    },
    {
      "code": "KTU",
      "name": "卡图机场",
      "city": "卡图",
      "latitude": 29.7,
      "longitude": 79.8333
    },
    {
      "code": "IXD",
      "name": "阿拉哈巴德机场",
      "city": "阿拉哈巴德",
      "latitude": 25.4401,
      "longitude": 81.7339
    },
    {
      "code": "KNU",
      "name": "坎普尔机场",
      "city": "坎普尔",
      "latitude": 26.4042,
      "longitude": 80.411
    },
    {
      "code": "GWL",
      "name": "瓜廖尔机场",
      "city": "瓜廖尔",
      "latitude": 26.2933,
      "longitude": 78.2278
    },
    {
      "code": "JLR",
      "name": "贾巴尔普尔机场",
      "city": "贾巴尔普尔",
      "latitude": 23.1778,
      "longitude": 80.052
    },
    {
      "code": "IDR",
      "name": "因多尔机场",
      "city": "因多尔",
      "latitude": 22.7218,
      "longitude": 75.8011
    },
    {
      "code": "BHO",
      "name": "博帕尔机场",
      "city": "博帕尔",
      "latitude": 23.2875,
      "longitude": 77.3374
    },
    {
      "code": "UDR",
      "name": "乌代布尔机场",
      "city": "乌代布尔",
      "latitude": 24.6177,
      "longitude": 73.8961
    },
    {
      "code": "JDH",
      "name": "焦特布尔机场",
      "city": "焦特布尔",
      "latitude": 26.2511,
      "longitude": 73.0489
    },
    {
      "code": "BKB",
      "name": "比卡内尔机场",
      "city": "比卡内尔",
      "latitude": 28.07,
      "longitude": 73.2067
    },
    {
      "code": "KQH",
      "name": "基什加尔机场",
      "city": "基什加尔",
      "latitude": 28.3222,
      "longitude": 73.8667
    },
    {
      "code": "HSS",
      "name": "希萨尔机场",
      "city": "希萨尔",
      "latitude": 29.1792,
      "longitude": 75.7556
    },
    {
      "code": "PNP",
      "name": "帕尼帕特机场",
      "city": "帕尼帕特",
      "latitude": 29.3933,
      "longitude": 76.9617
    },
    {
      "code": "KUU",
      "name": "库鲁克谢特拉机场",
      "city": "库鲁克谢特拉",
      "latitude": 29.9667,
      "longitude": 76.85
    },
    {
      "code": "RGH",
      "name": "拉加尔机场",
      "city": "拉加尔",
      "latitude": 29.1,
      "longitude": 73.0167
    },
    {
      "code": "REW",
      "name": "雷瓦里机场",
      "city": "雷瓦里",
      "latitude": 28.2,
      "longitude": 76.6167
    },
    {
      "code": "NMB",
      "name": "达尔班加机场",
      "city": "达尔班加",
      "latitude": 26.1128,
      "longitude": 85.0894
    },
    {
      "code": "MUZ",
      "name": "穆扎法尔布尔机场",
      "city": "穆扎法尔布尔",
      "latitude": 26.1194,
      "longitude": 85.3139
    },
    {
      "code": "GOP",
      "name": "戈拉克布尔机场",
      "city": "戈拉克布尔",
      "latitude": 26.7397,
      "longitude": 83.4497
    },
    {
      "code": "IXK",
      "name": "卡西机场",
      "city": "卡西",
      "latitude": 25.4444,
      "longitude": 82.8594
    },
    {
      "code": "IXP",
      "name": "帕特纳机场",
      "city": "帕特纳",
      "latitude": 25.5913,
      "longitude": 85.0878
    },
    {
      "code": "RGI",
      "name": "兰加里机场",
      "city": "兰加里",
      "latitude": 26.75,
      "longitude": 92.6167
    },
    {
      "code": "IXQ",
      "name": "卡里姆甘杰机场",
      "city": "卡里姆甘杰",
      "latitude": 24.9589,
      "longitude": 92.7889
    },
    {
      "code": "IXT",
      "name": "帕西加特机场",
      "city": "帕西加特",
      "latitude": 28.0667,
      "longitude": 95.3333
    },
    {
      "code": "IXW",
      "name": "江西机场",
      "city": "江西",
      "latitude": 27.5833,
      "longitude": 94.1667
    },
    {
      "code": "IXU",
      "name": "奥朗机场",
      "city": "奥朗",
      "latitude": 19.8628,
      "longitude": 75.3981
    },
    {
      "code": "IXB",
      "name": "巴格多格拉机场",
      "city": "巴格多格拉",
      "latitude": 26.6812,
      "longitude": 88.3285
    },
    {
      "code": "IXZ",
      "name": "维尔机场",
      "city": "维尔",
      "latitude": 9.8383,
      "longitude": 78.0833
    },
    {
      "code": "TCR",
      "name": "图蒂科林机场",
      "city": "图蒂科林",
      "latitude": 8.7244,
      "longitude": 78.0259
    },
    {
      "code": "NVY",
      "name": "内韦利机场",
      "city": "内韦利",
      "latitude": 11.5444,
      "longitude": 79.2033
    },
    {
      "code": "SXV",
      "name": "萨勒姆机场",
      "city": "萨勒姆",
      "latitude": 11.7833,
      "longitude": 78.0667
    },
    {
      "code": "PNY",
      "name": "本地治里机场",
      "city": "本地治里",
      "latitude": 11.9683,
      "longitude": 79.8128
    },
    {
      "code": "VPY",
      "name": "翁戈尔机场",
      "city": "翁戈尔",
      "latitude": 15.845,
      "longitude": 80.0406
    },
    {
      "code": "CDP",
      "name": "库达帕机场",
      "city": "库达帕",
      "latitude": 14.5106,
      "longitude": 78.7739
    },
    {
      "code": "PUT",
      "name": "普图尔机场",
      "city": "普图尔",
      "latitude": 13.7622,
      "longitude": 79.5472
    },
    {
      "code": "RJA",
      "name": "拉贾蒙德里机场",
      "city": "拉贾蒙德里",
      "latitude": 17.1106,
      "longitude": 81.8178
    },
    {
      "code": "KKD",
      "name": "卡金达机场",
      "city": "卡金达",
      "latitude": 16.7806,
      "longitude": 82.2394
    },
    {
      "code": "RTC",
      "name": "拉特拉姆机场",
      "city": "拉特拉姆",
      "latitude": 23.3167,
      "longitude": 75.0417
    },
    {
      "code": "KHJ",
      "name": "卡朱拉霍机场",
      "city": "卡朱拉霍",
      "latitude": 24.8172,
      "longitude": 79.9186
    },
    {
      "code": "JGA",
      "name": "贾姆纳加尔机场",
      "city": "贾姆纳加尔",
      "latitude": 22.4655,
      "longitude": 70.0128
    },
    {
      "code": "BHJ",
      "name": "布杰机场",
      "city": "布杰",
      "latitude": 23.2878,
      "longitude": 69.67
    },
    {
      "code": "HSK",
      "name": "哈斯克机场",
      "city": "哈斯克",
      "latitude": 23.1444,
      "longitude": 69.6556
    },
    {
      "code": "PBD",
      "name": "波尔班达尔机场",
      "city": "波尔班达尔",
      "latitude": 21.6483,
      "longitude": 69.6572
    },
    {
      "code": "DIU",
      "name": "迪乌机场",
      "city": "迪乌",
      "latitude": 20.7131,
      "longitude": 70.9211
    },
    {
      "code": "BDQ",
      "name": "瓦多达拉机场",
      "city": "瓦多达拉",
      "latitude": 22.3361,
      "longitude": 73.2261
    },
    {
      "code": "STV",
      "name": "苏拉特机场",
      "city": "苏拉特",
      "latitude": 21.1139,
      "longitude": 72.7417
    },
    {
      "code": "RAJ",
      "name": "拉杰科特机场",
      "city": "拉杰科特",
      "latitude": 22.3092,
      "longitude": 70.7786
    },
    {
      "code": "BHV",
      "name": "巴拉特普尔机场",
      "city": "巴拉特普尔",
      "latitude": 27.2167,
      "longitude": 77.5167
    },
    {
      "code": "KTH",
      "name": "科塔机场",
      "city": "科塔",
      "latitude": 25.16,
      "longitude": 75.8456
    },
    {
      "code": "DHM",
      "name": "达尔马萨拉机场",
      "city": "达尔马萨拉",
      "latitude": 32.165,
      "longitude": 76.2633
    },
    {
      "code": "KLU",
      "name": "库鲁机场",
      "city": "库鲁",
      "latitude": 31.8767,
      "longitude": 77.1544
    },
    {
      "code": "SLV",
      "name": "希姆拉机场",
      "city": "希姆拉",
      "latitude": 31.0817,
      "longitude": 77.0683
    },
    {
      "code": "IXO",
      "name": "奥里萨邦机场",
      "city": "奥里萨邦",
      "latitude": 20.2444,
      "longitude": 85.8178
    },
    {
      "code": "JHB",
      "name": "贾尔苏古达机场",
      "city": "贾尔苏古达",
      "latitude": 21.9133,
      "longitude": 84.05
    },
    {
      "code": "ROU",
      "name": "劳尔凯拉机场",
      "city": "劳尔凯拉",
      "latitude": 22.2567,
      "longitude": 84.8144
    },
    {
      "code": "JRG",
      "name": "杰尔加翁机场",
      "city": "杰尔加翁",
      "latitude": 20.96,
      "longitude": 75.6178
    },
    {
      "code": "AKD",
      "name": "阿克拉机场",
      "city": "阿克拉",
      "latitude": 19.0872,
      "longitude": 77.0583
    },
    {
      "code": "NGP",
      "name": "那格浦尔机场",
      "city": "那格浦尔",
      "latitude": 21.0922,
      "longitude": 79.0472
    },
    {
      "code": "WGC",
      "name": "瓦尔达机场",
      "city": "瓦尔达",
      "latitude": 20.7333,
      "longitude": 78.6167
    },
    {
      "code": "RML",
      "name": "拉特马拉纳机场",
      "city": "拉特马拉纳",
      "latitude": 6.822,
      "longitude": 79.8861
    },
    {
      "code": "HRI",
      "name": "马特拉机场",
      "city": "马特拉",
      "latitude": 5.9489,
      "longitude": 81.1244
    },
    {
      "code": "JAF",
      "name": "贾夫纳机场",
      "city": "贾夫纳",
      "latitude": 9.7925,
      "longitude": 80.07
    },
    {
      "code": "ACJ",
      "name": "安帕拉机场",
      "city": "安帕拉",
      "latitude": 7.3667,
      "longitude": 81.6333
    },
    {
      "code": "GOY",
      "name": "戈尔机场",
      "city": "戈尔",
      "latitude": 6.9833,
      "longitude": 81.6
    },
    {
      "code": "WRZ",
      "name": "瓦武尼亚机场",
      "city": "瓦武尼亚",
      "latitude": 8.7889,
      "longitude": 80.4778
    },
    {
      "code": "TRZ",
      "name": "蒂鲁科纳马莱机场",
      "city": "蒂鲁科纳马莱",
      "latitude": 8.5944,
      "longitude": 81.1811
    },
    {
      "code": "KEE",
      "name": "凯格勒机场",
      "city": "凯格勒",
      "latitude": 7.2522,
      "longitude": 80.3944
    },
    {
      "code": "WEL",
      "name": "韦利加马机场",
      "city": "韦利加马",
      "latitude": 5.975,
      "longitude": 80.4778
    },
    {
      "code": "SPD",
      "name": "锡尔赫特机场",
      "city": "锡尔赫特",
      "latitude": 24.9633,
      "longitude": 91.8867
    },
    {
      "code": "JSR",
      "name": "杰索尔机场",
      "city": "杰索尔",
      "latitude": 23.1833,
      "longitude": 89.1608
    },
    {
      "code": "RJH",
      "name": "拉杰沙希机场",
      "city": "拉杰沙希",
      "latitude": 24.4372,
      "longitude": 88.6165
    },
    {
      "code": "BZL",
      "name": "巴里萨尔机场",
      "city": "巴里萨尔",
      "latitude": 22.801,
      "longitude": 90.3017
    },
    {
      "code": "CXB",
      "name": "科克斯巴扎尔机场",
      "city": "科克斯巴扎尔",
      "latitude": 21.4522,
      "longitude": 91.9639
    },
    {
      "code": "ZYL",
      "name": "锡尔赫特奥斯马尼国际机场",
      "city": "锡尔赫特",
      "latitude": 24.9633,
      "longitude": 91.8867
    },
    {
      "code": "VXT",
      "name": "库米拉机场",
      "city": "库米拉",
      "latitude": 23.4333,
      "longitude": 91.1833
    },
    {
      "code": "BTB",
      "name": "博格拉机场",
      "city": "博格拉",
      "latitude": 24.85,
      "longitude": 89.3722
    },
    {
      "code": "RNG",
      "name": "朗布尔机场",
      "city": "朗布尔",
      "latitude": 25.7583,
      "longitude": 89.2444
    },
    {
      "code": "DIN",
      "name": "迪纳杰布尔机场",
      "city": "迪纳杰布尔",
      "latitude": 25.6222,
      "longitude": 88.65
    },
    {
      "code": "PKR",
      "name": "博卡拉机场",
      "city": "博卡拉",
      "latitude": 28.2008,
      "longitude": 83.9822
    },
    {
      "code": "BWA",
      "name": "巴拉特普尔机场",
      "city": "巴拉特普尔",
      "latitude": 27.6783,
      "longitude": 84.4294
    },
    {
      "code": "BHR",
      "name": "巴拉特普尔机场",
      "city": "巴拉特普尔",
      "latitude": 27.6783,
      "longitude": 84.4294
    },
    {
      "code": "BDP",
      "name": "拜达机场",
      "city": "拜达",
      "latitude": 29.0333,
      "longitude": 81.2
    },
    {
      "code": "DHI",
      "name": "丹加迪机场",
      "city": "丹加迪",
      "latitude": 28.75,
      "longitude": 80.5833
    },
    {
      "code": "NEP",
      "name": "尼泊尔根杰机场",
      "city": "尼泊尔根杰",
      "latitude": 28.1033,
      "longitude": 81.6667
    },
    {
      "code": "JKR",
      "name": "詹克布尔机场",
      "city": "詹克布尔",
      "latitude": 26.7389,
      "longitude": 85.9222
    },
    {
      "code": "SIF",
      "name": "西姆拉机场",
      "city": "西姆拉",
      "latitude": 27.1667,
      "longitude": 86.7333
    },
    {
      "code": "LUA",
      "name": "卢克拉机场",
      "city": "卢克拉",
      "latitude": 27.6867,
      "longitude": 86.7317
    },
    {
      "code": "RUM",
      "name": "拉梅恰普机场",
      "city": "拉梅恰普",
      "latitude": 27.3944,
      "longitude": 86.0611
    },
    {
      "code": "TPJ",
      "name": "塔普勒琼机场",
      "city": "塔普勒琼",
      "latitude": 27.35,
      "longitude": 87.7
    },
    {
      "code": "TBT",
      "name": "图姆林塔尔机场",
      "city": "图姆林塔尔",
      "latitude": 27.315,
      "longitude": 87.1944
    },
    {
      "code": "BHT",
      "name": "不丹帕罗机场",
      "city": "帕罗",
      "latitude": 27.4033,
      "longitude": 89.4244
    },
    {
      "code": "GLU",
      "name": "格列普机场",
      "city": "格列普",
      "latitude": 27.1333,
      "longitude": 90.4667
    },
    {
      "code": "YON",
      "name": "永福机场",
      "city": "永福",
      "latitude": 27.5833,
      "longitude": 89.6667
    },
    {
      "code": "BHK",
      "name": "布哈拉机场",
      "city": "布哈拉",
      "latitude": 39.775,
      "longitude": 64.4833
    },
    {
      "code": "UGC",
      "name": "乌尔根奇机场",
      "city": "乌尔根奇",
      "latitude": 41.5844,
      "longitude": 60.6417
    },
    {
      "code": "FEG",
      "name": "费尔干纳机场",
      "city": "费尔干纳",
      "latitude": 40.3778,
      "longitude": 71.745
    },
    {
      "code": "NMA",
      "name": "纳曼干机场",
      "city": "纳曼干",
      "latitude": 40.9889,
      "longitude": 71.5556
    },
    {
      "code": "AZN",
      "name": "安集延机场",
      "city": "安集延",
      "latitude": 40.7278,
      "longitude": 72.2944
    },
    {
      "code": "KSQ",
      "name": "卡尔希机场",
      "city": "卡尔希",
      "latitude": 38.8333,
      "longitude": 65.9167
    },
    {
      "code": "TMJ",
      "name": "铁尔梅兹机场",
      "city": "铁尔梅兹",
      "latitude": 37.2861,
      "longitude": 67.3111
    },
    {
      "code": "NUK",
      "name": "努库斯机场",
      "city": "努库斯",
      "latitude": 42.4889,
      "longitude": 59.6233
    },
    {
      "code": "CIT",
      "name": "希姆肯特机场",
      "city": "希姆肯特",
      "latitude": 42.3644,
      "longitude": 69.4789
    },
    {
      "code": "KZO",
      "name": "克孜勒奥尔达机场",
      "city": "克孜勒奥尔达",
      "latitude": 44.7067,
      "longitude": 65.5925
    },
    {
      "code": "URA",
      "name": "乌拉尔斯克机场",
      "city": "乌拉尔斯克",
      "latitude": 51.1508,
      "longitude": 51.5433
    },
    {
      "code": "PWQ",
      "name": "巴甫洛达尔机场",
      "city": "巴甫洛达尔",
      "latitude": 52.195,
      "longitude": 77.0739
    },
    {
      "code": "KGF",
      "name": "卡拉干达机场",
      "city": "卡拉干达",
      "latitude": 49.6708,
      "longitude": 73.3344
    },
    {
      "code": "PLX",
      "name": "塞米巴拉金斯克机场",
      "city": "塞米巴拉金斯克",
      "latitude": 50.3517,
      "longitude": 80.2344
    },
    {
      "code": "UKK",
      "name": "乌斯季卡缅诺戈尔斯克机场",
      "city": "乌斯季卡缅诺戈尔斯克",
      "latitude": 50.0361,
      "longitude": 82.4944
    },
    {
      "code": "KOV",
      "name": "科克舍套机场",
      "city": "科克舍套",
      "latitude": 53.3289,
      "longitude": 69.5944
    },
    {
      "code": "EKB",
      "name": "叶卡捷琳堡机场",
      "city": "叶卡捷琳堡",
      "latitude": 56.7431,
      "longitude": 60.8027
    },
    {
      "code": "IKU",
      "name": "伊塞克湖机场",
      "city": "伊塞克湖",
      "latitude": 42.5611,
      "longitude": 76.7139
    },
    {
      "code": "JAL",
      "name": "贾拉拉巴德机场",
      "city": "贾拉拉巴德",
      "latitude": 40.9333,
      "longitude": 72.95
    },
    {
      "code": "BAT",
      "name": "巴特肯机场",
      "city": "巴特肯",
      "latitude": 40.0617,
      "longitude": 70.8167
    },
    {
      "code": "KQT",
      "name": "库利亚布机场",
      "city": "库利亚布",
      "latitude": 37.9861,
      "longitude": 69.805
    },
    {
      "code": "LBD",
      "name": "胡占德机场",
      "city": "胡占德",
      "latitude": 40.2144,
      "longitude": 68.8644
    },
    {
      "code": "CRZ",
      "name": "土库曼巴希机场",
      "city": "土库曼巴希",
      "latitude": 40.0633,
      "longitude": 52.9722
    },
    {
      "code": "MYP",
      "name": "马雷机场",
      "city": "马雷",
      "latitude": 37.62,
      "longitude": 61.8967
    },
    {
      "code": "KRW",
      "name": "克拉斯诺沃茨克机场",
      "city": "克拉斯诺沃茨克",
      "latitude": 40.0633,
      "longitude": 52.9722
    },
    {
      "code": "TAU",
      "name": "塔乌兹机场",
      "city": "塔乌兹",
      "latitude": 39.45,
      "longitude": 54.4
    },
    {
      "code": "GNJ",
      "name": "占贾机场",
      "city": "占贾",
      "latitude": 40.7378,
      "longitude": 46.3175
    },
    {
      "code": "LLK",
      "name": "连科兰机场",
      "city": "连科兰",
      "latitude": 38.7633,
      "longitude": 48.8183
    },
    {
      "code": "NAJ",
      "name": "纳希切万机场",
      "city": "纳希切万",
      "latitude": 39.1889,
      "longitude": 45.4583
    },
    {
      "code": "ZXT",
      "name": "扎卡塔雷机场",
      "city": "扎卡塔雷",
      "latitude": 41.4633,
      "longitude": 46.3167
    },
    {
      "code": "FZL",
      "name": "菲祖利机场",
      "city": "菲祖利",
      "latitude": 39.5833,
      "longitude": 47.15
    },
    {
      "code": "LWN",
      "name": "久姆里机场",
      "city": "久姆里",
      "latitude": 40.75,
      "longitude": 43.8594
    },
    {
      "code": "KAP",
      "name": "卡潘机场",
      "city": "卡潘",
      "latitude": 39.4444,
      "longitude": 46.3167
    },
    {
      "code": "SIS",
      "name": "锡西安机场",
      "city": "锡西安",
      "latitude": 39.85,
      "longitude": 45.0167
    },
    {
      "code": "VAN",
      "name": "瓦纳佐尔机场",
      "city": "瓦纳佐尔",
      "latitude": 40.8667,
      "longitude": 44.4833
    },
    {
      "code": "SUI",
      "name": "苏呼米机场",
      "city": "苏呼米",
      "latitude": 42.8583,
      "longitude": 41.1289
    },
    {
      "code": "TSK",
      "name": "茨欣瓦利机场",
      "city": "茨欣瓦利",
      "latitude": 42.2278,
      "longitude": 43.9667
    },
    {
      "code": "AKH",
      "name": "阿哈尔卡拉基机场",
      "city": "阿哈尔卡拉基",
      "latitude": 41.425,
      "longitude": 43.4833
    },
    {
      "code": "EIL",
      "name": "埃拉特机场",
      "city": "埃拉特",
      "latitude": 29.5611,
      "longitude": 34.96
    },
    {
      "code": "JRS",
      "name": "耶路撒冷机场",
      "city": "耶路撒冷",
      "latitude": 31.8644,
      "longitude": 35.2217
    },
    {
      "code": "OMF",
      "name": "马弗拉克机场",
      "city": "马弗拉克",
      "latitude": 32.3564,
      "longitude": 37.145
    },
    {
      "code": "H4",
      "name": "H4机场",
      "city": "H4",
      "latitude": 32.5,
      "longitude": 38.1333
    },
    {
      "code": "H5",
      "name": "H5机场",
      "city": "H5",
      "latitude": 32.15,
      "longitude": 37.15
    },
    {
      "code": "BAL",
      "name": "巴勒贝克机场",
      "city": "巴勒贝克",
      "latitude": 34,
      "longitude": 36.1833
    },
    {
      "code": "TYR",
      "name": "提尔机场",
      "city": "提尔",
      "latitude": 33.2722,
      "longitude": 35.2
    },
    {
      "code": "SID",
      "name": "赛达机场",
      "city": "赛达",
      "latitude": 33.5667,
      "longitude": 35.3667
    },
    {
      "code": "TRI",
      "name": "的黎波里机场",
      "city": "的黎波里",
      "latitude": 34.4333,
      "longitude": 35.85
    },
    {
      "code": "TQD",
      "name": "提克里特机场",
      "city": "提克里特",
      "latitude": 34.6167,
      "longitude": 43.6833
    },
    {
      "code": "RZR",
      "name": "拉姆萨尔机场",
      "city": "拉姆萨尔",
      "latitude": 36.9167,
      "longitude": 50.65
    },
    {
      "code": "BJB",
      "name": "博金布尔德机场",
      "city": "博金布尔德",
      "latitude": 37.5,
      "longitude": 57.3333
    },
    {
      "code": "KSH",
      "name": "克尔曼沙阿机场",
      "city": "克尔曼沙阿",
      "latitude": 34.3458,
      "longitude": 47.1581
    },
    {
      "code": "PFQ",
      "name": "帕尔萨巴德机场",
      "city": "帕尔萨巴德",
      "latitude": 39.6033,
      "longitude": 47.8817
    },
    {
      "code": "AZD",
      "name": "亚兹德机场",
      "city": "亚兹德",
      "latitude": 31.9044,
      "longitude": 54.2765
    },
    {
      "code": "GCH",
      "name": "格什姆机场",
      "city": "格什姆",
      "latitude": 26.7544,
      "longitude": 55.9017
    },
    {
      "code": "JWN",
      "name": "扎博勒机场",
      "city": "扎博勒",
      "latitude": 31.0958,
      "longitude": 61.5439
    },
    {
      "code": "CKT",
      "name": "恰赫巴哈尔机场",
      "city": "恰赫巴哈尔",
      "latitude": 25.4433,
      "longitude": 60.3822
    },
    {
      "code": "ZBR",
      "name": "恰赫巴哈尔机场",
      "city": "恰赫巴哈尔",
      "latitude": 25.4433,
      "longitude": 60.3822
    },
    {
      "code": "VKO",
      "name": "伏努科沃国际机场",
      "city": "莫斯科",
      "latitude": 55.5961,
      "longitude": 37.2615
    },
    {
      "code": "KZN",
      "name": "喀山机场",
      "city": "喀山",
      "latitude": 55.6061,
      "longitude": 49.2789
    },
    {
      "code": "ROV",
      "name": "顿河畔罗斯托夫机场",
      "city": "顿河畔罗斯托夫",
      "latitude": 47.2583,
      "longitude": 39.8183
    },
    {
      "code": "UFA",
      "name": "乌法机场",
      "city": "乌法",
      "latitude": 54.5575,
      "longitude": 55.8744
    },
    {
      "code": "VOG",
      "name": "伏尔加格勒机场",
      "city": "伏尔加格勒",
      "latitude": 48.7825,
      "longitude": 44.345
    },
    {
      "code": "KRR",
      "name": "克拉斯诺达尔机场",
      "city": "克拉斯诺达尔",
      "latitude": 45.0347,
      "longitude": 39.1706
    },
    {
      "code": "AER",
      "name": "索契机场",
      "city": "索契",
      "latitude": 43.4494,
      "longitude": 39.9561
    },
    {
      "code": "MRV",
      "name": "矿水城机场",
      "city": "矿水城",
      "latitude": 44.225,
      "longitude": 43.0819
    },
    {
      "code": "STW",
      "name": "斯塔夫罗波尔机场",
      "city": "斯塔夫罗波尔",
      "latitude": 45.1089,
      "longitude": 42.1128
    },
    {
      "code": "MCX",
      "name": "马哈奇卡拉机场",
      "city": "马哈奇卡拉",
      "latitude": 42.8167,
      "longitude": 47.6528
    },
    {
      "code": "GRV",
      "name": "格罗兹尼机场",
      "city": "格罗兹尼",
      "latitude": 43.2983,
      "longitude": 45.6844
    },
    {
      "code": "NAL",
      "name": "纳尔奇克机场",
      "city": "纳尔奇克",
      "latitude": 43.5128,
      "longitude": 43.6361
    },
    {
      "code": "OGZ",
      "name": "弗拉季高加索机场",
      "city": "弗拉季高加索",
      "latitude": 43.205,
      "longitude": 44.6067
    },
    {
      "code": "ASF",
      "name": "阿斯特拉罕机场",
      "city": "阿斯特拉罕",
      "latitude": 46.2833,
      "longitude": 48.0061
    },
    {
      "code": "EGO",
      "name": "别尔哥罗德机场",
      "city": "别尔哥罗德",
      "latitude": 50.6439,
      "longitude": 36.59
    },
    {
      "code": "VOR",
      "name": "沃罗涅日机场",
      "city": "沃罗涅日",
      "latitude": 51.8142,
      "longitude": 39.2294
    },
    {
      "code": "LPK",
      "name": "利佩茨克机场",
      "city": "利佩茨克",
      "latitude": 52.7028,
      "longitude": 39.5378
    },
    {
      "code": "TBW",
      "name": "坦波夫机场",
      "city": "坦波夫",
      "latitude": 52.8061,
      "longitude": 41.4828
    },
    {
      "code": "RZN",
      "name": "梁赞机场",
      "city": "梁赞",
      "latitude": 54.6461,
      "longitude": 39.7
    },
    {
      "code": "TLA",
      "name": "图拉机场",
      "city": "图拉",
      "latitude": 54.15,
      "longitude": 37.35
    },
    {
      "code": "KLF",
      "name": "卡卢加机场",
      "city": "卡卢加",
      "latitude": 54.55,
      "longitude": 36.2833
    },
    {
      "code": "BZK",
      "name": "布良斯克机场",
      "city": "布良斯克",
      "latitude": 53.2144,
      "longitude": 34.1764
    },
    {
      "code": "ORL",
      "name": "奥廖尔机场",
      "city": "奥廖尔",
      "latitude": 52.9844,
      "longitude": 36.0111
    },
    {
      "code": "KUR",
      "name": "库尔斯克机场",
      "city": "库尔斯克",
      "latitude": 51.7506,
      "longitude": 36.2956
    },
    {
      "code": "LDG",
      "name": "拉缅斯科耶机场",
      "city": "拉缅斯科耶",
      "latitude": 56.7833,
      "longitude": 35.7333
    },
    {
      "code": "TVE",
      "name": "特维尔机场",
      "city": "特维尔",
      "latitude": 56.825,
      "longitude": 35.7578
    },
    {
      "code": "YAR",
      "name": "雅罗斯拉夫尔机场",
      "city": "雅罗斯拉夫尔",
      "latitude": 57.5606,
      "longitude": 40.1572
    },
    {
      "code": "KMW",
      "name": "科斯特罗马机场",
      "city": "科斯特罗马",
      "latitude": 57.7972,
      "longitude": 41.0194
    },
    {
      "code": "IWA",
      "name": "伊万诺沃机场",
      "city": "伊万诺沃",
      "latitude": 56.9394,
      "longitude": 40.9406
    },
    {
      "code": "VLG",
      "name": "沃洛格达机场",
      "city": "沃洛格达",
      "latitude": 59.2833,
      "longitude": 39.95
    },
    {
      "code": "ARH",
      "name": "阿尔汉格尔斯克机场",
      "city": "阿尔汉格尔斯克",
      "latitude": 64.6003,
      "longitude": 40.7167
    },
    {
      "code": "MMK",
      "name": "摩尔曼斯克机场",
      "city": "摩尔曼斯克",
      "latitude": 68.7817,
      "longitude": 32.7506
    },
    {
      "code": "PES",
      "name": "彼得罗扎沃茨克机场",
      "city": "彼得罗扎沃茨克",
      "latitude": 61.8852,
      "longitude": 34.1547
    },
    {
      "code": "JOK",
      "name": "约什卡尔奥拉机场",
      "city": "约什卡尔奥拉",
      "latitude": 56.7006,
      "longitude": 47.9047
    },
    {
      "code": "CSY",
      "name": "切博克萨雷机场",
      "city": "切博克萨雷",
      "latitude": 56.0903,
      "longitude": 47.3472
    },
    {
      "code": "ULV",
      "name": "乌里扬诺夫斯克机场",
      "city": "乌里扬诺夫斯克",
      "latitude": 54.4011,
      "longitude": 48.8028
    },
    {
      "code": "PZA",
      "name": "奔萨机场",
      "city": "奔萨",
      "latitude": 53.1106,
      "longitude": 45.0211
    },
    {
      "code": "SKX",
      "name": "萨兰斯克机场",
      "city": "萨兰斯克",
      "latitude": 54.125,
      "longitude": 45.2125
    },
    {
      "code": "RTW",
      "name": "萨拉托夫机场",
      "city": "萨拉托夫",
      "latitude": 51.565,
      "longitude": 46.0467
    },
    {
      "code": "GSV",
      "name": "古谢夫机场",
      "city": "古谢夫",
      "latitude": 54.6,
      "longitude": 22.1833
    },
    {
      "code": "KGD",
      "name": "加里宁格勒机场",
      "city": "加里宁格勒",
      "latitude": 54.89,
      "longitude": 20.5925
    },
    {
      "code": "PKV",
      "name": "普斯科夫机场",
      "city": "普斯科夫",
      "latitude": 57.7839,
      "longitude": 28.3956
    },
    {
      "code": "NVR",
      "name": "大诺夫哥罗德机场",
      "city": "大诺夫哥罗德",
      "latitude": 58.6078,
      "longitude": 31.3839
    },
    {
      "code": "SMW",
      "name": "斯摩棱斯克机场",
      "city": "斯摩棱斯克",
      "latitude": 54.75,
      "longitude": 32.05
    },
    {
      "code": "MSQ",
      "name": "明斯克国际机场",
      "city": "明斯克",
      "latitude": 53.8825,
      "longitude": 28.0307
    },
    {
      "code": "GME",
      "name": "戈梅利机场",
      "city": "戈梅利",
      "latitude": 52.527,
      "longitude": 31.0167
    },
    {
      "code": "BQT",
      "name": "布列斯特机场",
      "city": "布列斯特",
      "latitude": 52.1083,
      "longitude": 23.8981
    },
    {
      "code": "GNA",
      "name": "格罗德诺机场",
      "city": "格罗德诺",
      "latitude": 53.602,
      "longitude": 24.0538
    },
    {
      "code": "MVQ",
      "name": "莫吉廖夫机场",
      "city": "莫吉廖夫",
      "latitude": 53.9545,
      "longitude": 30.0951
    },
    {
      "code": "VIL",
      "name": "维尔纽斯机场",
      "city": "维尔纽斯",
      "latitude": 54.6341,
      "longitude": 25.2858
    },
    {
      "code": "KUN",
      "name": "考纳斯机场",
      "city": "考纳斯",
      "latitude": 54.9639,
      "longitude": 24.0848
    },
    {
      "code": "PLQ",
      "name": "帕兰加机场",
      "city": "帕兰加",
      "latitude": 55.9733,
      "longitude": 21.0939
    },
    {
      "code": "SQO",
      "name": "希奥利艾机场",
      "city": "希奥利艾",
      "latitude": 55.8939,
      "longitude": 23.395
    },
    {
      "code": "DGP",
      "name": "道加夫皮尔斯机场",
      "city": "道加夫皮尔斯",
      "latitude": 55.9425,
      "longitude": 26.6611
    },
    {
      "code": "LPX",
      "name": "利耶帕亚机场",
      "city": "利耶帕亚",
      "latitude": 56.5175,
      "longitude": 21.0967
    },
    {
      "code": "VNT",
      "name": "文茨皮尔斯机场",
      "city": "文茨皮尔斯",
      "latitude": 57.3578,
      "longitude": 21.5444
    },
    {
      "code": "TAY",
      "name": "塔尔图机场",
      "city": "塔尔图",
      "latitude": 58.3072,
      "longitude": 26.6904
    },
    {
      "code": "EPU",
      "name": "库雷萨雷机场",
      "city": "库雷萨雷",
      "latitude": 58.2299,
      "longitude": 22.5095
    },
    {
      "code": "KDL",
      "name": "卡尔德拉机场",
      "city": "卡尔德拉",
      "latitude": 58.9911,
      "longitude": 23.0061
    },
    {
      "code": "HEM",
      "name": "赫尔辛基万塔机场",
      "city": "赫尔辛基",
      "latitude": 60.3172,
      "longitude": 24.9633
    },
    {
      "code": "TKU",
      "name": "图尔库机场",
      "city": "图尔库",
      "latitude": 60.5144,
      "longitude": 22.2628
    },
    {
      "code": "RVN",
      "name": "罗瓦涅米机场",
      "city": "罗瓦涅米",
      "latitude": 66.5644,
      "longitude": 25.8306
    },
    {
      "code": "IVL",
      "name": "伊瓦洛机场",
      "city": "伊瓦洛",
      "latitude": 68.6072,
      "longitude": 27.4053
    },
    {
      "code": "KTT",
      "name": "基蒂莱机场",
      "city": "基蒂莱",
      "latitude": 67.7006,
      "longitude": 24.8467
    },
    {
      "code": "KAO",
      "name": "库奥皮奥机场",
      "city": "库奥皮奥",
      "latitude": 63.0072,
      "longitude": 27.7978
    },
    {
      "code": "JOE",
      "name": "约恩苏机场",
      "city": "约恩苏",
      "latitude": 62.6628,
      "longitude": 29.6075
    },
    {
      "code": "SVL",
      "name": "萨翁林纳机场",
      "city": "萨翁林纳",
      "latitude": 61.9431,
      "longitude": 28.945
    },
    {
      "code": "MHQ",
      "name": "马里耶哈姆机场",
      "city": "马里耶哈姆",
      "latitude": 60.1222,
      "longitude": 19.8983
    },
    {
      "code": "VAA",
      "name": "瓦萨机场",
      "city": "瓦萨",
      "latitude": 63.0506,
      "longitude": 21.7622
    },
    {
      "code": "KOK",
      "name": "科科拉机场",
      "city": "科科拉",
      "latitude": 63.7211,
      "longitude": 23.1431
    },
    {
      "code": "KAJ",
      "name": "卡亚尼机场",
      "city": "卡亚尼",
      "latitude": 64.2853,
      "longitude": 27.6922
    },
    {
      "code": "JYV",
      "name": "于韦斯屈莱机场",
      "city": "于韦斯屈莱",
      "latitude": 62.3995,
      "longitude": 25.6783
    },
    {
      "code": "MIK",
      "name": "米凯利机场",
      "city": "米凯利",
      "latitude": 62.9467,
      "longitude": 27.2017
    },
    {
      "code": "POR",
      "name": "波里机场",
      "city": "波里",
      "latitude": 61.4617,
      "longitude": 21.7997
    },
    {
      "code": "BMA",
      "name": "斯德哥尔摩布罗马机场",
      "city": "斯德哥尔摩",
      "latitude": 59.3544,
      "longitude": 17.9417
    },
    {
      "code": "NYO",
      "name": "斯德哥尔摩斯卡夫斯塔机场",
      "city": "斯德哥尔摩",
      "latitude": 58.7886,
      "longitude": 16.9122
    },
    {
      "code": "MMX",
      "name": "马尔默机场",
      "city": "马尔默",
      "latitude": 55.5361,
      "longitude": 13.3722
    },
    {
      "code": "UME",
      "name": "于默奥机场",
      "city": "于默奥",
      "latitude": 63.7917,
      "longitude": 20.2828
    },
    {
      "code": "LLA",
      "name": "吕勒奥机场",
      "city": "吕勒奥",
      "latitude": 65.5439,
      "longitude": 22.1222
    },
    {
      "code": "KRN",
      "name": "基律纳机场",
      "city": "基律纳",
      "latitude": 67.822,
      "longitude": 20.3368
    },
    {
      "code": "SFT",
      "name": "谢莱夫特奥机场",
      "city": "谢莱夫特奥",
      "latitude": 64.6244,
      "longitude": 21.0769
    },
    {
      "code": "SDL",
      "name": "松兹瓦尔机场",
      "city": "松兹瓦尔",
      "latitude": 62.5281,
      "longitude": 17.4439
    },
    {
      "code": "OER",
      "name": "厄斯特松德机场",
      "city": "厄斯特松德",
      "latitude": 63.1944,
      "longitude": 14.5003
    },
    {
      "code": "KSD",
      "name": "卡尔斯塔德机场",
      "city": "卡尔斯塔德",
      "latitude": 59.4447,
      "longitude": 13.3374
    },
    {
      "code": "ORB",
      "name": "厄勒布鲁机场",
      "city": "厄勒布鲁",
      "latitude": 59.2237,
      "longitude": 15.038
    },
    {
      "code": "VXO",
      "name": "韦克舍机场",
      "city": "韦克舍",
      "latitude": 56.9291,
      "longitude": 14.728
    },
    {
      "code": "KLR",
      "name": "卡尔马机场",
      "city": "卡尔马",
      "latitude": 56.6855,
      "longitude": 16.2876
    },
    {
      "code": "RNB",
      "name": "伦讷比机场",
      "city": "伦讷比",
      "latitude": 55.4253,
      "longitude": 14.0869
    },
    {
      "code": "VBY",
      "name": "维斯比机场",
      "city": "维斯比",
      "latitude": 57.6628,
      "longitude": 18.3461
    },
    {
      "code": "HAD",
      "name": "哈尔姆斯塔德机场",
      "city": "哈尔姆斯塔德",
      "latitude": 56.6911,
      "longitude": 12.82
    },
    {
      "code": "JKG",
      "name": "延雪平机场",
      "city": "延雪平",
      "latitude": 57.7576,
      "longitude": 14.0686
    },
    {
      "code": "LDK",
      "name": "利丁雪平机场",
      "city": "利丁雪平",
      "latitude": 58.4064,
      "longitude": 15.6805
    },
    {
      "code": "HFS",
      "name": "哈格福什机场",
      "city": "哈格福什",
      "latitude": 60.02,
      "longitude": 13.5789
    },
    {
      "code": "GEV",
      "name": "耶夫勒机场",
      "city": "耶夫勒",
      "latitude": 60.5933,
      "longitude": 16.9511
    },
    {
      "code": "BLE",
      "name": "博伦厄机场",
      "city": "博伦厄",
      "latitude": 60.422,
      "longitude": 15.515
    },
    {
      "code": "MXX",
      "name": "莫拉机场",
      "city": "莫拉",
      "latitude": 60.9583,
      "longitude": 14.5114
    },
    {
      "code": "IDB",
      "name": "伊德雷机场",
      "city": "伊德雷",
      "latitude": 61.8517,
      "longitude": 12.4922
    },
    {
      "code": "TRF",
      "name": "桑德尔福德机场",
      "city": "桑德尔福德",
      "latitude": 59.1867,
      "longitude": 10.2586
    },
    {
      "code": "SVG",
      "name": "斯塔万格机场",
      "city": "斯塔万格",
      "latitude": 58.8767,
      "longitude": 5.6378
    },
    {
      "code": "BOO",
      "name": "博德机场",
      "city": "博德",
      "latitude": 67.2692,
      "longitude": 14.3653
    },
    {
      "code": "EVE",
      "name": "哈尔斯塔机场",
      "city": "哈尔斯塔",
      "latitude": 68.4911,
      "longitude": 16.6781
    },
    {
      "code": "TOS",
      "name": "特罗姆瑟机场",
      "city": "特罗姆瑟",
      "latitude": 69.6833,
      "longitude": 18.9189
    },
    {
      "code": "ALF",
      "name": "阿尔塔机场",
      "city": "阿尔塔",
      "latitude": 69.9761,
      "longitude": 23.3567
    },
    {
      "code": "LKL",
      "name": "拉克塞尔夫机场",
      "city": "拉克塞尔夫",
      "latitude": 70.0688,
      "longitude": 24.9733
    },
    {
      "code": "KKN",
      "name": "希尔克内斯机场",
      "city": "希尔克内斯",
      "latitude": 69.7258,
      "longitude": 29.8911
    },
    {
      "code": "VDS",
      "name": "瓦德瑟机场",
      "city": "瓦德瑟",
      "latitude": 70.0653,
      "longitude": 29.8447
    },
    {
      "code": "BJF",
      "name": "巴亚克机场",
      "city": "巴亚克",
      "latitude": 69.0556,
      "longitude": 21.0139
    },
    {
      "code": "LYR",
      "name": "朗伊尔城机场",
      "city": "朗伊尔城",
      "latitude": 78.2461,
      "longitude": 15.4656
    },
    {
      "code": "MOL",
      "name": "莫尔德机场",
      "city": "莫尔德",
      "latitude": 62.7447,
      "longitude": 7.2625
    },
    {
      "code": "AES",
      "name": "奥勒松机场",
      "city": "奥勒松",
      "latitude": 62.5625,
      "longitude": 6.1197
    },
    {
      "code": "KRS",
      "name": "克里斯蒂安桑机场",
      "city": "克里斯蒂安桑",
      "latitude": 58.2042,
      "longitude": 8.0854
    },
    {
      "code": "HAU",
      "name": "豪格松机场",
      "city": "豪格松",
      "latitude": 59.3453,
      "longitude": 5.2083
    },
    {
      "code": "FAN",
      "name": "法纳机场",
      "city": "法纳",
      "latitude": 60.2967,
      "longitude": 5.7611
    },
    {
      "code": "SOG",
      "name": "松达尔机场",
      "city": "松达尔",
      "latitude": 61.8306,
      "longitude": 7.1378
    },
    {
      "code": "FDE",
      "name": "福德机场",
      "city": "福德",
      "latitude": 61.3917,
      "longitude": 5.7625
    },
    {
      "code": "SRP",
      "name": "斯特林机场",
      "city": "斯特林",
      "latitude": 59.7917,
      "longitude": 5.3411
    },
    {
      "code": "SKN",
      "name": "斯卡恩机场",
      "city": "斯卡恩",
      "latitude": 68.5783,
      "longitude": 15.0361
    },
    {
      "code": "MQN",
      "name": "莫斯肯内斯机场",
      "city": "莫斯肯内斯",
      "latitude": 67.9222,
      "longitude": 12.6944
    },
    {
      "code": "LKN",
      "name": "勒克内斯机场",
      "city": "勒克内斯",
      "latitude": 68.1525,
      "longitude": 13.6094
    },
    {
      "code": "SVJ",
      "name": "斯沃尔韦尔机场",
      "city": "斯沃尔韦尔",
      "latitude": 68.2433,
      "longitude": 14.6689
    },
    {
      "code": "VEA",
      "name": "韦斯特曼纳机场",
      "city": "韦斯特曼纳",
      "latitude": 68.4956,
      "longitude": 14.8422
    },
    {
      "code": "ANX",
      "name": "安德内斯机场",
      "city": "安德内斯",
      "latitude": 69.2925,
      "longitude": 16.1442
    },
    {
      "code": "HVG",
      "name": "霍宁斯沃格机场",
      "city": "霍宁斯沃格",
      "latitude": 71.0097,
      "longitude": 25.9836
    },
    {
      "code": "MEH",
      "name": "梅哈姆机场",
      "city": "梅哈姆",
      "latitude": 71.0297,
      "longitude": 27.8267
    },
    {
      "code": "BNN",
      "name": "布伦内于松德机场",
      "city": "布伦内于松德",
      "latitude": 78.9197,
      "longitude": 11.8639
    },
    {
      "code": "AAR",
      "name": "奥胡斯机场",
      "city": "奥胡斯",
      "latitude": 56.3,
      "longitude": 10.619
    },
    {
      "code": "EBJ",
      "name": "埃斯比约机场",
      "city": "埃斯比约",
      "latitude": 55.5259,
      "longitude": 8.5534
    },
    {
      "code": "KRP",
      "name": "卡鲁普机场",
      "city": "卡鲁普",
      "latitude": 55.5117,
      "longitude": 9.1246
    },
    {
      "code": "ODE",
      "name": "欧登塞机场",
      "city": "欧登塞",
      "latitude": 55.4764,
      "longitude": 10.3309
    },
    {
      "code": "SGD",
      "name": "森讷堡机场",
      "city": "森讷堡",
      "latitude": 54.9644,
      "longitude": 9.7917
    },
    {
      "code": "RKE",
      "name": "罗斯基勒机场",
      "city": "罗斯基勒",
      "latitude": 55.5856,
      "longitude": 12.1314
    },
    {
      "code": "CNL",
      "name": "森讷兰机场",
      "city": "森讷兰",
      "latitude": 55.4283,
      "longitude": 11.9861
    },
    {
      "code": "FAE",
      "name": "法罗机场",
      "city": "法罗群岛",
      "latitude": 62.0639,
      "longitude": -7.2772
    },
    {
      "code": "AEY",
      "name": "阿克雷里机场",
      "city": "阿克雷里",
      "latitude": 65.66,
      "longitude": -18.0728
    },
    {
      "code": "EGS",
      "name": "埃吉尔斯塔济机场",
      "city": "埃吉尔斯塔济",
      "latitude": 65.2833,
      "longitude": -14.4014
    },
    {
      "code": "IFJ",
      "name": "伊萨菲厄泽机场",
      "city": "伊萨菲厄泽",
      "latitude": 66.0581,
      "longitude": -23.1353
    },
    {
      "code": "HZK",
      "name": "胡萨维克机场",
      "city": "胡萨维克",
      "latitude": 65.9525,
      "longitude": -17.4258
    },
    {
      "code": "VEY",
      "name": "韦斯特曼纳群岛机场",
      "city": "韦斯特曼纳群岛",
      "latitude": 63.4244,
      "longitude": -20.2789
    },
    {
      "code": "HFN",
      "name": "赫本机场",
      "city": "赫本",
      "latitude": 64.2956,
      "longitude": -15.2272
    },
    {
      "code": "GJR",
      "name": "格约维克机场",
      "city": "格约维克",
      "latitude": 65.9944,
      "longitude": -18.1967
    },
    {
      "code": "THO",
      "name": "索尔斯霍芬机场",
      "city": "索尔斯霍芬",
      "latitude": 63.84,
      "longitude": -20.3961
    },
    {
      "code": "SIJ",
      "name": "锡格吕菲厄泽机场",
      "city": "锡格吕菲厄泽",
      "latitude": 66.1333,
      "longitude": -18.9167
    },
    {
      "code": "PFJ",
      "name": "帕特雷克斯菲厄泽机场",
      "city": "帕特雷克斯菲厄泽",
      "latitude": 65.5556,
      "longitude": -23.965
    },
    {
      "code": "BIU",
      "name": "比尔杜达吕尔机场",
      "city": "比尔杜达吕尔",
      "latitude": 65.6633,
      "longitude": -20.2917
    },
    {
      "code": "GRY",
      "name": "格里姆塞机场",
      "city": "格里姆塞",
      "latitude": 66.5458,
      "longitude": -18.0172
    },
    {
      "code": "SAK",
      "name": "萨乌达克罗库尔机场",
      "city": "萨乌达克罗库尔",
      "latitude": 65.7317,
      "longitude": -19.5728
    },
    {
      "code": "RHA",
      "name": "雷克雅赫利泽机场",
      "city": "雷克雅赫利泽",
      "latitude": 64.1306,
      "longitude": -21.2067
    },
    {
      "code": "HVK",
      "name": "霍尔马维克机场",
      "city": "霍尔马维克",
      "latitude": 65.7,
      "longitude": -21.6972
    },
    {
      "code": "NOR",
      "name": "诺尔德菲厄泽机场",
      "city": "诺尔德菲厄泽",
      "latitude": 66.1333,
      "longitude": -23.1167
    },
    {
      "code": "SNN",
      "name": "香农机场",
      "city": "香农",
      "latitude": 52.702,
      "longitude": -8.9248
    },
    {
      "code": "KIR",
      "name": "凯里机场",
      "city": "凯里",
      "latitude": 52.1809,
      "longitude": -9.5238
    },
    {
      "code": "NOC",
      "name": "诺克机场",
      "city": "诺克",
      "latitude": 53.9103,
      "longitude": -8.8185
    },
    {
      "code": "WAT",
      "name": "沃特福德机场",
      "city": "沃特福德",
      "latitude": 52.1872,
      "longitude": -7.0867
    },
    {
      "code": "SXL",
      "name": "斯莱戈机场",
      "city": "斯莱戈",
      "latitude": 54.2803,
      "longitude": -8.5992
    },
    {
      "code": "GWY",
      "name": "戈尔韦机场",
      "city": "戈尔韦",
      "latitude": 53.3003,
      "longitude": -8.9416
    },
    {
      "code": "CFN",
      "name": "多尼戈尔机场",
      "city": "多尼戈尔",
      "latitude": 55.0442,
      "longitude": -8.341
    },
    {
      "code": "LTR",
      "name": "莱特肯尼机场",
      "city": "莱特肯尼",
      "latitude": 55.04,
      "longitude": -7.6833
    },
    {
      "code": "IOR",
      "name": "伊尼什莫尔机场",
      "city": "伊尼什莫尔",
      "latitude": 53.1067,
      "longitude": -9.6536
    },
    {
      "code": "IIA",
      "name": "伊尼什曼机场",
      "city": "伊尼什曼",
      "latitude": 53.0928,
      "longitude": -9.5689
    },
    {
      "code": "INQ",
      "name": "伊尼什伊尔机场",
      "city": "伊尼什伊尔",
      "latitude": 53.0647,
      "longitude": -9.5106
    },
    {
      "code": "BFS",
      "name": "贝尔法斯特国际机场",
      "city": "贝尔法斯特",
      "latitude": 54.6625,
      "longitude": -6.2158
    },
    {
      "code": "BHD",
      "name": "贝尔法斯特城市机场",
      "city": "贝尔法斯特",
      "latitude": 54.6181,
      "longitude": -5.8725
    },
    {
      "code": "LDY",
      "name": "伦敦德里城市机场",
      "city": "伦敦德里",
      "latitude": 55.0428,
      "longitude": -7.1611
    },
    {
      "code": "ENK",
      "name": "恩尼斯基伦机场",
      "city": "恩尼斯基伦",
      "latitude": 54.3989,
      "longitude": -7.6517
    },
    {
      "code": "STN",
      "name": "伦敦斯坦斯特德机场",
      "city": "伦敦",
      "latitude": 51.885,
      "longitude": 0.235
    },
    {
      "code": "LTN",
      "name": "伦敦卢顿机场",
      "city": "伦敦",
      "latitude": 51.8747,
      "longitude": -0.3683
    },
    {
      "code": "LCY",
      "name": "伦敦城市机场",
      "city": "伦敦",
      "latitude": 51.5053,
      "longitude": 0.0553
    },
    {
      "code": "SEN",
      "name": "伦敦南安普敦机场",
      "city": "南安普敦",
      "latitude": 50.9503,
      "longitude": -1.3567
    },
    {
      "code": "BHX",
      "name": "伯明翰机场",
      "city": "伯明翰",
      "latitude": 52.4539,
      "longitude": -1.748
    },
    {
      "code": "GLA",
      "name": "格拉斯哥机场",
      "city": "格拉斯哥",
      "latitude": 55.8719,
      "longitude": -4.4331
    },
    {
      "code": "PIK",
      "name": "格拉斯哥普雷斯特威克机场",
      "city": "格拉斯哥",
      "latitude": 55.5094,
      "longitude": -4.5867
    },
    {
      "code": "ABZ",
      "name": "阿伯丁机场",
      "city": "阿伯丁",
      "latitude": 57.2019,
      "longitude": -2.1978
    },
    {
      "code": "INV",
      "name": "因弗内斯机场",
      "city": "因弗内斯",
      "latitude": 57.5425,
      "longitude": -4.0475
    },
    {
      "code": "DND",
      "name": "邓迪机场",
      "city": "邓迪",
      "latitude": 56.4525,
      "longitude": -3.0258
    },
    {
      "code": "SYY",
      "name": "斯托诺韦机场",
      "city": "斯托诺韦",
      "latitude": 58.2153,
      "longitude": -6.3311
    },
    {
      "code": "BEB",
      "name": "本贝丘拉机场",
      "city": "本贝丘拉",
      "latitude": 57.4811,
      "longitude": -7.3628
    },
    {
      "code": "ILY",
      "name": "艾莱岛机场",
      "city": "艾莱岛",
      "latitude": 55.6819,
      "longitude": -6.2567
    },
    {
      "code": "CAL",
      "name": "坎贝尔敦机场",
      "city": "坎贝尔敦",
      "latitude": 55.4372,
      "longitude": -5.6867
    },
    {
      "code": "OBN",
      "name": "奥本机场",
      "city": "奥本",
      "latitude": 56.4639,
      "longitude": -5.4
    },
    {
      "code": "TRE",
      "name": "蒂里机场",
      "city": "蒂里",
      "latitude": 56.4994,
      "longitude": -6.8689
    },
    {
      "code": "COL",
      "name": "科尔机场",
      "city": "科尔",
      "latitude": 56.3011,
      "longitude": -6.0289
    },
    {
      "code": "MME",
      "name": "达勒姆蒂斯河谷机场",
      "city": "达勒姆",
      "latitude": 54.5092,
      "longitude": -1.4294
    },
    {
      "code": "NCL",
      "name": "纽卡斯尔机场",
      "city": "纽卡斯尔",
      "latitude": 55.0375,
      "longitude": -1.6917
    },
    {
      "code": "LBA",
      "name": "利兹布拉德福德机场",
      "city": "利兹",
      "latitude": 53.8658,
      "longitude": -1.6606
    },
    {
      "code": "HUY",
      "name": "亨伯赛德机场",
      "city": "亨伯赛德",
      "latitude": 53.5744,
      "longitude": -0.3506
    },
    {
      "code": "DSA",
      "name": "唐卡斯特谢菲尔德机场",
      "city": "唐卡斯特",
      "latitude": 53.4811,
      "longitude": -1.0044
    },
    {
      "code": "EMA",
      "name": "东米德兰兹机场",
      "city": "东米德兰兹",
      "latitude": 52.8311,
      "longitude": -1.3281
    },
    {
      "code": "NQY",
      "name": "纽基机场",
      "city": "纽基",
      "latitude": 50.4406,
      "longitude": -4.995
    },
    {
      "code": "EXT",
      "name": "埃克塞特机场",
      "city": "埃克塞特",
      "latitude": 50.7344,
      "longitude": -3.4139
    },
    {
      "code": "BRS",
      "name": "布里斯托尔机场",
      "city": "布里斯托尔",
      "latitude": 51.3827,
      "longitude": -2.7191
    },
    {
      "code": "CWL",
      "name": "卡迪夫机场",
      "city": "卡迪夫",
      "latitude": 51.3967,
      "longitude": -3.3433
    },
    {
      "code": "SWS",
      "name": "斯旺西机场",
      "city": "斯旺西",
      "latitude": 51.6053,
      "longitude": -4.0678
    },
    {
      "code": "VLY",
      "name": "安格尔西机场",
      "city": "安格尔西",
      "latitude": 53.2481,
      "longitude": -4.5353
    },
    {
      "code": "HAW",
      "name": "霍沃登机场",
      "city": "霍沃登",
      "latitude": 53.1778,
      "longitude": -3.075
    },
    {
      "code": "BWF",
      "name": "巴罗因弗内斯机场",
      "city": "巴罗因弗内斯",
      "latitude": 54.1311,
      "longitude": -3.2639
    },
    {
      "code": "BLK",
      "name": "布莱克浦机场",
      "city": "布莱克浦",
      "latitude": 53.7717,
      "longitude": -3.0289
    },
    {
      "code": "LPL",
      "name": "利物浦约翰列侬机场",
      "city": "利物浦",
      "latitude": 53.3336,
      "longitude": -2.8497
    },
    {
      "code": "ACI",
      "name": "奥尔德尼机场",
      "city": "奥尔德尼",
      "latitude": 49.7061,
      "longitude": -2.2144
    },
    {
      "code": "LSI",
      "name": "锡利群岛机场",
      "city": "锡利群岛",
      "latitude": 49.9683,
      "longitude": -6.2917
    },
    {
      "code": "LER",
      "name": "兰兹角机场",
      "city": "兰兹角",
      "latitude": 50.1278,
      "longitude": -5.6706
    },
    {
      "code": "BOH",
      "name": "伯恩茅斯机场",
      "city": "伯恩茅斯",
      "latitude": 50.78,
      "longitude": -1.8425
    },
    {
      "code": "SOU",
      "name": "南安普敦机场",
      "city": "南安普敦",
      "latitude": 50.9503,
      "longitude": -1.3567
    },
    {
      "code": "NWI",
      "name": "诺里奇机场",
      "city": "诺里奇",
      "latitude": 52.6758,
      "longitude": 1.2828
    },
    {
      "code": "CBG",
      "name": "剑桥机场",
      "city": "剑桥",
      "latitude": 52.205,
      "longitude": 0.175
    },
    {
      "code": "OXF",
      "name": "牛津机场",
      "city": "牛津",
      "latitude": 51.8369,
      "longitude": -1.32
    },
    {
      "code": "BQH",
      "name": "伦敦比金希尔机场",
      "city": "伦敦",
      "latitude": 51.5528,
      "longitude": -0.4261
    },
    {
      "code": "FAB",
      "name": "法恩伯勒机场",
      "city": "法恩伯勒",
      "latitude": 51.2756,
      "longitude": -0.7761
    },
    {
      "code": "WTN",
      "name": "怀特岛机场",
      "city": "怀特岛",
      "latitude": 50.6917,
      "longitude": -1.3167
    },
    {
      "code": "SHM",
      "name": "希拉姆机场",
      "city": "希拉姆",
      "latitude": 51.8611,
      "longitude": -2.1667
    },
    {
      "code": "WIC",
      "name": "威克机场",
      "city": "威克",
      "latitude": 58.4589,
      "longitude": -3.0928
    },
    {
      "code": "KOI",
      "name": "柯克沃尔机场",
      "city": "柯克沃尔",
      "latitude": 58.9578,
      "longitude": -2.905
    },
    {
      "code": "LSO",
      "name": "勒威克机场",
      "city": "勒威克",
      "latitude": 60.1922,
      "longitude": -1.2444
    },
    {
      "code": "UNT",
      "name": "安斯特机场",
      "city": "安斯特",
      "latitude": 60.7472,
      "longitude": -0.8783
    },
    {
      "code": "FOA",
      "name": "福拉机场",
      "city": "福拉",
      "latitude": 60.3644,
      "longitude": -2.0583
    },
    {
      "code": "PSV",
      "name": "帕帕斯托尔机场",
      "city": "帕帕斯托尔",
      "latitude": 59.3461,
      "longitude": -2.9
    },
    {
      "code": "NDY",
      "name": "桑代机场",
      "city": "桑代",
      "latitude": 59.2506,
      "longitude": -2.6044
    },
    {
      "code": "EOI",
      "name": "埃代机场",
      "city": "埃代",
      "latitude": 59.1906,
      "longitude": -2.7722
    },
    {
      "code": "WRY",
      "name": "韦斯特雷机场",
      "city": "韦斯特雷",
      "latitude": 59.35,
      "longitude": -2.95
    },
    {
      "code": "PPW",
      "name": "帕帕韦斯特雷机场",
      "city": "帕帕韦斯特雷",
      "latitude": 59.3517,
      "longitude": -2.9
    },
    {
      "code": "SOY",
      "name": "斯特伦塞机场",
      "city": "斯特伦塞",
      "latitude": 59.1553,
      "longitude": -2.6417
    },
    {
      "code": "SAY",
      "name": "桑代机场",
      "city": "桑代",
      "latitude": 59.2506,
      "longitude": -2.6044
    },
    {
      "code": "NRL",
      "name": "北罗纳尔德赛机场",
      "city": "北罗纳尔德赛",
      "latitude": 59.3675,
      "longitude": -2.7844
    },
    {
      "code": "BVA",
      "name": "巴黎博韦机场",
      "city": "巴黎",
      "latitude": 49.4544,
      "longitude": 2.1128
    },
    {
      "code": "LBG",
      "name": "巴黎勒布尔歇机场",
      "city": "巴黎",
      "latitude": 48.9694,
      "longitude": 2.4414
    },
    {
      "code": "MRS",
      "name": "马赛普罗旺斯机场",
      "city": "马赛",
      "latitude": 43.4392,
      "longitude": 5.2142
    },
    {
      "code": "NCE",
      "name": "尼斯蓝色海岸机场",
      "city": "尼斯",
      "latitude": 43.6658,
      "longitude": 7.215
    },
    {
      "code": "BOD",
      "name": "波尔多梅里尼亚克机场",
      "city": "波尔多",
      "latitude": 44.8283,
      "longitude": -0.7156
    },
    {
      "code": "SXB",
      "name": "斯特拉斯堡机场",
      "city": "斯特拉斯堡",
      "latitude": 48.5383,
      "longitude": 7.6283
    },
    {
      "code": "LIL",
      "name": "里尔机场",
      "city": "里尔",
      "latitude": 50.5619,
      "longitude": 3.0894
    },
    {
      "code": "MLH",
      "name": "米卢斯机场",
      "city": "米卢斯",
      "latitude": 47.5897,
      "longitude": 7.5299
    },
    {
      "code": "BIQ",
      "name": "比亚里茨机场",
      "city": "比亚里茨",
      "latitude": 43.4683,
      "longitude": -1.5233
    },
    {
      "code": "PAU",
      "name": "波城机场",
      "city": "波城",
      "latitude": 43.38,
      "longitude": -0.4186
    },
    {
      "code": "LRH",
      "name": "拉罗谢尔机场",
      "city": "拉罗谢尔",
      "latitude": 46.1792,
      "longitude": -1.1953
    },
    {
      "code": "PGF",
      "name": "佩皮尼昂机场",
      "city": "佩皮尼昂",
      "latitude": 42.7404,
      "longitude": 2.8707
    },
    {
      "code": "MPL",
      "name": "蒙彼利埃机场",
      "city": "蒙彼利埃",
      "latitude": 43.5761,
      "longitude": 3.963
    },
    {
      "code": "AVN",
      "name": "阿维尼翁机场",
      "city": "阿维尼翁",
      "latitude": 43.9072,
      "longitude": 4.9018
    },
    {
      "code": "CCF",
      "name": "卡尔卡松机场",
      "city": "卡尔卡松",
      "latitude": 43.216,
      "longitude": 2.3061
    },
    {
      "code": "RDZ",
      "name": "罗德兹机场",
      "city": "罗德兹",
      "latitude": 44.4078,
      "longitude": 2.4827
    },
    {
      "code": "AUR",
      "name": "欧里亚克机场",
      "city": "欧里亚克",
      "latitude": 44.8914,
      "longitude": 2.4219
    },
    {
      "code": "LIG",
      "name": "利摩日机场",
      "city": "利摩日",
      "latitude": 45.8628,
      "longitude": 1.1794
    },
    {
      "code": "PIS",
      "name": "普瓦捷机场",
      "city": "普瓦捷",
      "latitude": 46.5875,
      "longitude": 0.3061
    },
    {
      "code": "TUF",
      "name": "图尔机场",
      "city": "图尔",
      "latitude": 47.4322,
      "longitude": 0.7278
    },
    {
      "code": "ANE",
      "name": "昂热机场",
      "city": "昂热",
      "latitude": 47.5603,
      "longitude": -0.3122
    },
    {
      "code": "LME",
      "name": "勒芒机场",
      "city": "勒芒",
      "latitude": 47.9486,
      "longitude": 0.2014
    },
    {
      "code": "CET",
      "name": "绍莱机场",
      "city": "绍莱",
      "latitude": 46.8628,
      "longitude": 1.7278
    },
    {
      "code": "BOU",
      "name": "布尔日机场",
      "city": "布尔日",
      "latitude": 47.0581,
      "longitude": 2.3703
    },
    {
      "code": "NVS",
      "name": "讷韦尔机场",
      "city": "讷韦尔",
      "latitude": 47.0025,
      "longitude": 3.1133
    },
    {
      "code": "AUF",
      "name": "欧塞尔机场",
      "city": "欧塞尔",
      "latitude": 47.85,
      "longitude": 3.4972
    },
    {
      "code": "DIJ",
      "name": "第戎机场",
      "city": "第戎",
      "latitude": 47.2689,
      "longitude": 5.0889
    },
    {
      "code": "DLE",
      "name": "多尔机场",
      "city": "多尔",
      "latitude": 47.0422,
      "longitude": 5.4278
    },
    {
      "code": "BES",
      "name": "贝桑松机场",
      "city": "贝桑松",
      "latitude": 47.2067,
      "longitude": 5.985
    },
    {
      "code": "CMF",
      "name": "尚贝里机场",
      "city": "尚贝里",
      "latitude": 45.6381,
      "longitude": 5.8822
    },
    {
      "code": "GNB",
      "name": "格勒诺布尔机场",
      "city": "格勒诺布尔",
      "latitude": 45.3628,
      "longitude": 5.3294
    },
    {
      "code": "VAF",
      "name": "瓦朗斯机场",
      "city": "瓦朗斯",
      "latitude": 44.9217,
      "longitude": 4.9697
    },
    {
      "code": "GAT",
      "name": "加普机场",
      "city": "加普",
      "latitude": 44.4261,
      "longitude": 6.0372
    },
    {
      "code": "CEQ",
      "name": "拉卡纳机场",
      "city": "拉卡纳",
      "latitude": 44.7444,
      "longitude": -1.0472
    },
    {
      "code": "AGF",
      "name": "阿让机场",
      "city": "阿让",
      "latitude": 44.1747,
      "longitude": 0.5906
    },
    {
      "code": "PUF",
      "name": "波城机场",
      "city": "波城",
      "latitude": 43.38,
      "longitude": -0.4186
    },
    {
      "code": "LDE",
      "name": "卢尔德机场",
      "city": "卢尔德",
      "latitude": 43.1789,
      "longitude": -0.0061
    },
    {
      "code": "BZR",
      "name": "贝济耶机场",
      "city": "贝济耶",
      "latitude": 43.3239,
      "longitude": 3.3539
    },
    {
      "code": "NIM",
      "name": "尼姆机场",
      "city": "尼姆",
      "latitude": 43.7574,
      "longitude": 4.4164
    },
    {
      "code": "MEN",
      "name": "芒德机场",
      "city": "芒德",
      "latitude": 44.5017,
      "longitude": 3.5328
    },
    {
      "code": "LPY",
      "name": "勒皮机场",
      "city": "勒皮",
      "latitude": 45.0806,
      "longitude": 3.7628
    },
    {
      "code": "CFE",
      "name": "克莱蒙费朗机场",
      "city": "克莱蒙费朗",
      "latitude": 45.7867,
      "longitude": 3.1692
    },
    {
      "code": "VHY",
      "name": "维希机场",
      "city": "维希",
      "latitude": 46.1697,
      "longitude": 3.4039
    },
    {
      "code": "ROM",
      "name": "罗阿讷机场",
      "city": "罗阿讷",
      "latitude": 46.0583,
      "longitude": 4.0028
    },
    {
      "code": "SYT",
      "name": "圣艾蒂安机场",
      "city": "圣艾蒂安",
      "latitude": 45.5406,
      "longitude": 4.2964
    },