{
  "airports": [
    {
      "code": "JFK",
      "name": "约翰·F·肯尼迪国际机场",
      "city": "纽约",
      "latitude": 40.6413,
      "longitude": -73.7789
    },
    {
      "code": "LAX",
      "name": "洛杉矶国际机场",
      "city": "洛杉矶",
      "latitude": 33.9425,
      "longitude": -118.4081
    },
    {
      "code": "ORD",
      "name": "芝加哥奥黑尔国际机场",
      "city": "芝加哥",
      "latitude": 41.9786,
      "longitude": -87.9048
    },
    {
      "code": "MIA",
      "name": "迈阿密国际机场",
      "city": "迈阿密",
      "latitude": 25.7932,
      "longitude": -80.2906
    },
    {
      "code": "SEA",
      "name": "西雅图-塔科马国际机场",
      "city": "西雅图",
      "latitude": 47.4498,
      "longitude": -122.3118
    },
    {
      "code": "DFW",
      "name": "达拉斯-沃思堡国际机场",
      "city": "达拉斯",
      "latitude": 32.8968,
      "longitude": -97.038
    },
    {
      "code": "DEN",
      "name": "丹佛国际机场",
      "city": "丹佛",
      "latitude": 39.8617,
      "longitude": -104.673
    },
    {
      "code": "ATL",
      "name": "亚特兰大哈茨菲尔德-杰克逊国际机场",
      "city": "亚特兰大",
      "latitude": 33.6404,
      "longitude": -84.427
    },
    {
      "code": "PHX",
      "name": "凤凰城天港国际机场",
      "city": "凤凰城",
      "latitude": 33.4343,
      "longitude": -112.012
    },
    {
      "code": "LAS",
      "name": "拉斯维加斯麦卡伦国际机场",
      "city": "拉斯维加斯",
      "latitude": 36.0801,
      "longitude": -115.1522
    },
    {
      "code": "BOS",
      "name": "波士顿洛根国际机场",
      "city": "波士顿",
      "latitude": 42.3643,
      "longitude": -71.0052
    },
    {
      "code": "SFO",
      "name": "旧金山国际机场",
      "city": "旧金山",
      "latitude": 37.6213,
      "longitude": -122.379
    },
    {
      "code": "IAH",
      "name": "休斯顿乔治·布什洲际机场",
      "city": "休斯顿",
      "latitude": 29.9847,
      "longitude": -95.3414
    },
    {
      "code": "MSP",
      "name": "明尼阿波利斯-圣保罗国际机场",
      "city": "明尼阿波利斯",
      "latitude": 44.882,
      "longitude": -93.2218
    },
    {
      "code": "DTW",
      "name": "底特律韦恩县大都会机场",
      "city": "底特律",
      "latitude": 42.2124,
      "longitude": -83.3534
    },
    {
      "code": "PHL",
      "name": "费城国际机场",
      "city": "费城",
      "latitude": 39.8719,
      "longitude": -75.2411
    },
    {
      "code": "CLT",
      "name": "夏洛特道格拉斯国际机场",
      "city": "夏洛特",
      "latitude": 35.214,
      "longitude": -80.9431
    },
    {
      "code": "BWI",
      "name": "巴尔的摩-华盛顿国际机场",
      "city": "巴尔的摩",
      "latitude": 39.1754,
      "longitude": -76.6682
    },
    {
      "code": "MCO",
      "name": "奥兰多国际机场",
      "city": "奥兰多",
      "latitude": 28.4289,
      "longitude": -81.316
    },
    {
      "code": "SLC",
      "name": "盐湖城国际机场",
      "city": "盐湖城",
      "latitude": 40.7884,
      "longitude": -111.9778
    },
    {
      "code": "PDX",
      "name": "波特兰国际机场",
      "city": "波特兰",
      "latitude": 45.5887,
      "longitude": -122.5973
    },
    {
      "code": "SAN",
      "name": "圣地亚哥国际机场",
      "city": "圣地亚哥",
      "latitude": 32.7336,
      "longitude": -117.1897
    },
    {
      "code": "TPA",
      "name": "坦帕国际机场",
      "city": "坦帕",
      "latitude": 27.9755,
      "longitude": -82.5332
    },
    {
      "code": "STL",
      "name": "圣路易斯兰伯特国际机场",
      "city": "圣路易斯",
      "latitude": 38.7487,
      "longitude": -90.37
    },
    {
      "code": "HNL",
      "name": "檀香山国际机场",
      "city": "檀香山",
      "latitude": 21.3189,
      "longitude": -157.9224
    },
    {
      "code": "LGA",
      "name": "拉瓜迪亚机场",
      "city": "纽约",
      "latitude": 40.7772,
      "longitude": -73.8726
    },
    {
      "code": "EWR",
      "name": "纽瓦克自由国际机场",
      "city": "纽瓦克",
      "latitude": 40.6925,
      "longitude": -74.1687
    },
    {
      "code": "MDW",
      "name": "芝加哥中途国际机场",
      "city": "芝加哥",
      "latitude": 41.786,
      "longitude": -87.7524
    },
    {
      "code": "DCA",
      "name": "华盛顿里根国家机场",
      "city": "华盛顿",
      "latitude": 38.8521,
      "longitude": -77.0377
    },
    {
      "code": "IAD",
      "name": "华盛顿杜勒斯国际机场",
      "city": "华盛顿",
      "latitude": 38.9445,
      "longitude": -77.4558
    },
    {
      "code": "HOU",
      "name": "休斯顿威廉·P·霍比机场",
      "city": "休斯顿",
      "latitude": 29.6454,
      "longitude": -95.2789
    },
    {
      "code": "DAL",
      "name": "达拉斯爱田机场",
      "city": "达拉斯",
      "latitude": 32.8471,
      "longitude": -96.8518
    },
    {
      "code": "OAK",
      "name": "奥克兰国际机场",
      "city": "奥克兰",
      "latitude": 37.7213,
      "longitude": -122.2207
    },
    {
      "code": "SJC",
      "name": "圣何塞国际机场",
      "city": "圣何塞",
      "latitude": 37.3626,
      "longitude": -121.9291
    },
    {
      "code": "BUR",
      "name": "伯班克好莱坞机场",
      "city": "伯班克",
      "latitude": 34.2007,
      "longitude": -118.3585
    },
    {
      "code": "LGB",
      "name": "长滩机场",
      "city": "长滩",
      "latitude": 33.8177,
      "longitude": -118.1516
    },
    {
      "code": "SMF",
      "name": "萨克拉门托国际机场",
      "city": "萨克拉门托",
      "latitude": 38.6954,
      "longitude": -121.5907
    },
    {
      "code": "RNO",
      "name": "里诺-塔霍国际机场",
      "city": "里诺",
      "latitude": 39.4991,
      "longitude": -119.7681
    },
    {
      "code": "ANC",
      "name": "安克雷奇泰德·史蒂文斯国际机场",
      "city": "安克雷奇",
      "latitude": 61.1744,
      "longitude": -149.9996
    },
    {
      "code": "FAI",
      "name": "费尔班克斯国际机场",
      "city": "费尔班克斯",
      "latitude": 64.8151,
      "longitude": -147.856
    },
    {
      "code": "JNU",
      "name": "朱诺国际机场",
      "city": "朱诺",
      "latitude": 58.3549,
      "longitude": -134.5764
    },
    {
      "code": "MEM",
      "name": "孟菲斯国际机场",
      "city": "孟菲斯",
      "latitude": 35.0424,
      "longitude": -89.9767
    },
    {
      "code": "BNA",
      "name": "纳什维尔国际机场",
      "city": "纳什维尔",
      "latitude": 36.1245,
      "longitude": -86.6782
    },
    {
      "code": "MSY",
      "name": "新奥尔良路易斯·阿姆斯特朗国际机场",
      "city": "新奥尔良",
      "latitude": 29.9934,
      "longitude": -90.258
    },
    {
      "code": "JAX",
      "name": "杰克逊维尔国际机场",
      "city": "杰克逊维尔",
      "latitude": 30.4941,
      "longitude": -81.6879
    },
    {
      "code": "RDU",
      "name": "罗利-达勒姆国际机场",
      "city": "罗利",
      "latitude": 35.8776,
      "longitude": -78.7875
    },
    {
      "code": "CVG",
      "name": "辛辛那提/北肯塔基国际机场",
      "city": "辛辛那提",
      "latitude": 39.0488,
      "longitude": -84.6678
    },
    {
      "code": "CMH",
      "name": "哥伦布约翰·格伦国际机场",
      "city": "哥伦布",
      "latitude": 39.998,
      "longitude": -82.8919
    },
    {
      "code": "IND",
      "name": "印第安纳波利斯国际机场",
      "city": "印第安纳波利斯",
      "latitude": 39.7173,
      "longitude": -86.2944
    },
    {
      "code": "MKE",
      "name": "密尔沃基米切尔国际机场",
      "city": "密尔沃基",
      "latitude": 42.9472,
      "longitude": -87.8966
    },
    {
      "code": "CLE",
      "name": "克利夫兰霍普金斯国际机场",
      "city": "克利夫兰",
      "latitude": 41.4117,
      "longitude": -81.8498
    },
    {
      "code": "PIT",
      "name": "匹兹堡国际机场",
      "city": "匹兹堡",
      "latitude": 40.4915,
      "longitude": -80.2329
    },
    {
      "code": "ABQ",
      "name": "阿尔伯克基国际机场",
      "city": "阿尔伯克基",
      "latitude": 35.0402,
      "longitude": -106.6092
    },
    {
      "code": "TUL",
      "name": "塔尔萨国际机场",
      "city": "塔尔萨",
      "latitude": 36.1984,
      "longitude": -95.8881
    },
    {
      "code": "OKC",
      "name": "俄克拉荷马城威尔·罗杰斯世界机场",
      "city": "俄克拉荷马城",
      "latitude": 35.3931,
      "longitude": -97.6007
    }
  ]
}